~Version Section
VERS.   2.0:  CWLS Log ASCII Standard - Version 2.0
WRAP.    NO:  One data record per depth sample.
~Well Information Section
# 
# All depths are in TVD_SS.
# Log are manufactured using approximations to the nearest value.
# This file should not be used to load logs back into Finder 
# since depths are not MD.
# 
#MNEM.UNIT      VALUE                    DESCRIPTION
#---------      ----------               -----------
STRT.F        5225.0000                  :START DEPTH
STOP.F        13463.5000                 :STOP DEPTH
STEP.F                  .5               :STEP
NULL.          -999.250000               :NULL VALUE
COMP.                                    :Oil Company
WELL.              214/4-1               :Non unique well name
FLD.                                     :Field name
LOC.  -2.233878, 61.964789             :Location
PROV.                                    :Province
SRVC.                                    :Service
DATE.           2001-12-10               :Date unloaded
UWI.              20806940               :Unique well id
~Curve Information Section
#MNEM.UNIT                   API CODE                 Curve Description
#---------                   ----------               -----------------
VERTICAL-DEPTH-SS.F                                   :DEPTH (TVD_SS)
GR.GAPI                                   :Service = CMP1
HCAL.IN                                   :Service = CMP1
HLLD.OHMM                                   :Service = CMP1
DTCO.US/F                                   :Service = CMP2
DTSM.US/F                                   :Service = CMP2
DT1.US/F                                   :Service = CMP2
RHOZ.G/C3                                   :Service = CMP2
NPHI.                                   :Service = CMP2
~A
# ...
10019.0000   74.3333      13.7356      1.3254       132.3780     312.6000     348.6670     2.3156       44.3333      
10019.5000   69.9667      13.6400      1.2933       132.7330     314.6440     327.8670     2.2962       44.8933      
10020.0000   63.9000      13.6911      1.3795       130.5780     314.0670     266.4670     2.2867       44.9467      
10020.5000   68.5667      13.8089      1.4940       131.1330     320.0440     259.5330     2.2967       43.8000      
10021.0000   74.6333      13.8400      1.4489       131.4220     330.6670     308.2220     2.2791       44.2000      
10021.5000   76.8000      13.7911      1.2974       133.8220     326.7560     319.7780     2.2504       43.9067      
10022.0000   76.6000      13.7867      1.2920       134.8890     319.7330     322.7780     2.2273       43.8800      
10022.5000   76.8333      13.8200      1.3147       135.9330     328.8440     332.9330     2.2356       43.8800      
10023.0000   75.2333      13.7356      1.3391       135.4000     332.3560     328.3560     2.2522       45.3467      
10023.5000   72.1000      13.6800      1.3418       134.2890     321.6440     324.1560     2.2667       47.4000      
10024.0000   67.1000      13.7333      1.3268       132.5330     319.4670     308.2670     2.2676       45.3867      
10024.5000   63.7333      13.7889      1.3241       133.9330     312.6670     306.9330     2.2571       43.4667      
10025.0000   61.9333      13.7844      1.3612       131.6000     314.4890     318.0670     2.2500       42.1200      
10025.5000   61.9333      13.6889      1.4137       132.1780     307.0890     312.0670     2.2558       42.8133      
10026.0000   69.8333      13.6422      1.4683       129.8670     307.6000     316.6000     2.2931       45.9600      
10026.5000   75.1000      13.6133      1.4713       130.4000     305.4000     346.1780     2.3060       45.1200      
10027.0000   78.6667      13.6622      1.4327       129.6670     305.9560     360.8220     2.3033       43.2800      
10027.5000   80.6000      13.6756      1.3837       129.3110     315.4670     339.6890     2.2920       43.8267      
10028.0000   81.5333      13.7156      1.3570       130.3330     313.3560     318.8670     2.2809       41.9200      
10028.5000   81.5333      13.6111      1.3542       129.7330     312.2000     322.7780     2.2804       42.1867      
10029.0000   80.1667      13.5956      1.3696       130.7330     313.0220     311.4670     2.2856       43.0533      
10029.5000   75.6667      13.7000      1.3879       129.2670     319.7330     315.4440     2.2876       44.0000      
10030.0000   75.6333      13.6600      1.3696       130.8220     319.0440     319.6220     2.2800       43.8267      
10030.5000   79.0333      13.7667      1.3640       131.5330     313.8670     323.1780     2.2607       43.4800      
10031.0000   81.6000      13.6356      1.3542       130.8000     318.9330     327.6440     2.2496       44.2933      
10031.5000   81.2333      13.4956      1.3752       131.9560     311.2000     294.2000     2.2487       44.8400      
10032.0000   75.9667      13.4622      1.4137       132.9330     319.2000     287.7780     2.2504       44.6533      
10032.5000   73.0667      13.5467      1.4137       132.2220     315.0670     277.9110     2.2587       44.6800      
10033.0000   71.9000      13.4733      1.4181       129.3330     318.2670     248.2670     2.2951       43.7067      
10033.5000   71.2667      13.4533      1.5455       129.4440     318.0440     257.8440     2.3302       42.7600      
10034.0000   70.5000      13.2956      1.6034       127.6000     320.8000     268.9560     2.3351       43.0133      
10034.5000   71.6000      13.2689      1.5581       129.2000     316.6670     272.8000     2.3036       43.2400      
10035.0000   70.9000      13.2422      1.4623       127.4670     314.0440     265.9110     2.3009       42.6933      
10035.5000   71.3000      13.4267      1.5296       126.2670     312.9330     238.9560     2.3320       42.6400      
10036.0000   67.0333      13.3867      1.5661       127.9110     317.2670     223.6670     2.3640       42.6400      
10036.5000   65.7000      13.4089      1.5935       130.4000     316.6220     226.2000     2.3307       45.8800      
10037.0000   67.6000      13.4667      1.5375       128.1780     311.6670     238.6670     2.2767       45.1467      
10037.5000   71.0333      13.5044      1.4986       124.9330     312.3780     233.0000     2.2271       45.0800      
10038.0000   74.2333      13.6000      1.5501       124.0000     313.9330     234.9330     2.2420       44.5467      
10038.5000   75.8667      13.6422      1.5359       124.5330     314.6440     216.8000     2.2753       45.4000      
10039.0000   76.0333      13.9156      1.5296       125.0220     311.1330     226.8670     2.2947       46.2800      
10039.5000   77.3000      14.6000      1.4445       125.6000     304.6220     228.0670     2.2889       45.5200      
10040.0000   74.3333      13.3267      1.3950       126.1110     302.4000     229.4670     2.2589       42.4533      
10040.5000   71.7000      13.4733      1.4022       127.0890     283.9330     229.1780     2.2251       40.6267      
10041.0000   65.6333      13.5222      1.4444       123.8890     292.5330     239.0000     2.2173       38.4267      
10041.5000   61.5000      13.5822      1.4774       119.8000     282.6000     254.0000     2.2478       38.1733      
10042.0000   63.2333      13.7667      1.6167       120.1330     270.9330     243.8670     2.2942       37.0133      
10042.5000   66.9000      13.9200      1.7313       117.4000     284.4000     257.4000     2.3140       40.6267      
10043.0000   74.7333      13.9889      1.5743       114.1560     283.8440     265.8670     2.2756       42.8267      
10043.5000   75.2000      14.4756      1.4789       108.6670     294.3110     254.2000     2.2744       42.0533      
10044.0000   74.7000      14.9422      1.4489       111.6000     306.2000     274.7780     2.2784       44.3200      
10044.5000   72.6667      15.7311      1.3724       104.0000     305.1330     282.3560     2.2333       45.9867      
10045.0000   69.6333      13.6933      1.2894       104.4670     300.9110     283.4890     2.1691       48.0800      
10045.5000   66.3000      13.8889      1.1545       101.2440     284.2000     290.5330     2.1573       47.4267      
10046.0000   62.6000      13.3533      1.1345       94.4444      289.2670     286.1330     2.2198       42.1600      
10046.5000   59.6667      12.9467      1.3847       91.5778      288.3780     232.0440     2.3207       36.4800      
10047.0000   58.7333      12.9756      1.8805       87.7778      295.2670     200.4000     2.3584       38.1067      
10047.5000   62.3333      12.8511      2.0772       83.7778      291.1780     217.2890     2.3700       41.1067      
10048.0000   69.9000      12.7333      1.5096       83.8444      284.9110     248.8220     2.4387       38.0133      
10048.5000   68.3667      12.6311      1.4459       100.4670     283.3330     254.5110     2.4756       33.2800      
10049.0000   64.5667      12.5667      1.4051       99.6222      259.2000     284.8890     2.4876       31.5867      
10049.5000   59.8333      12.5889      1.3752       97.4222      270.8670     287.2000     2.4953       30.4800      
10050.0000   58.7000      12.6511      1.4080       97.9111      261.2440     275.6000     2.4947       29.1733      
10050.5000   60.1000      12.7133      1.5080       121.2220     257.4000     261.4000     2.4731       27.4400      
10051.0000   62.4667      12.6200      1.6653       123.2220     259.8440     264.0890     2.4147       26.8800      
10051.5000   63.8000      12.6911      1.6789       120.9560     266.1330     290.5330     2.3404       27.5067      
10052.0000   66.9000      12.9733      1.6399       119.8440     272.3560     263.8000     2.2698       29.8933      
10052.5000   75.7667      12.6733      1.4167       121.9330     303.0000     314.6000     2.2362       39.8667      
