~Version Section
VERS.   2.0:  CWLS Log ASCII Standard - Version 2.0
WRAP.    NO:  One data record per depth sample.
~Well Information Section
# 
# All depths are in TVD_SS.
# Log are manufactured using approximations to the nearest value.
# This file should not be used to load logs back into Finder 
# since depths are not MD.
# 
#MNEM.UNIT      VALUE                    DESCRIPTION
#---------      ----------               -----------
STRT.F        5225.0000                  :START DEPTH
STOP.F        13463.5000                 :STOP DEPTH
STEP.F                  .5               :STEP
NULL.          -999.250000               :NULL VALUE
COMP.                                    :Oil Company
WELL.              214/4-1               :Non unique well name
FLD.                                     :Field name
LOC.  -2.233878, 61.964789             :Location
PROV.                                    :Province
SRVC.                                    :Service
DATE.           2001-12-10               :Date unloaded
UWI.              20806940               :Unique well id
~Curve Information Section
#MNEM.UNIT                   API CODE                 Curve Description
#---------                   ----------               -----------------
VERTICAL-DEPTH-SS.F                                   :DEPTH (TVD_SS)
GR.GAPI                                   :Service = CMP1
HCAL.IN                                   :Service = CMP1
HLLD.OHMM                                   :Service = CMP1
DTCO.US/F                                   :Service = CMP2
DTSM.US/F                                   :Service = CMP2
DT1.US/F                                   :Service = CMP2
RHOZ.G/C3                                   :Service = CMP2
NPHI.                                   :Service = CMP2
~A
# ...
7843.0000    46.1333      18.1289      -999.2500    -999.2500    -999.2500    -999.2500    -999.2500    51.6800      
7843.5000    46.7333      18.1533      -999.2500    -999.2500    -999.2500    -999.2500    -999.2500    53.0133      
7844.0000    47.4000      18.2044      -999.2500    -999.2500    -999.2500    -999.2500    -999.2500    55.2400      
7844.5000    46.9667      18.5356      -999.2500    -999.2500    -999.2500    -999.2500    -999.2500    55.9600      
7845.0000    46.6000      18.6467      -999.2500    -999.2500    -999.2500    -999.2500    -999.2500    57.2133      
7845.5000    47.3667      18.6156      -999.2500    -999.2500    -999.2500    -999.2500    -999.2500    57.6267      
7846.0000    48.9000      18.6244      -999.2500    -999.2500    -999.2500    -999.2500    -999.2500    58.8400      
7846.5000    47.4000      18.6378      -999.2500    -999.2500    -999.2500    -999.2500    -999.2500    54.6933      
7847.0000    48.1000      18.5156      -999.2500    -999.2500    -999.2500    -999.2500    -999.2500    50.5867      
7847.5000    46.6000      18.3400      -999.2500    -999.2500    -999.2500    -999.2500    -999.2500    49.2000      
7848.0000    49.8667      17.7622      -999.2500    -999.2500    -999.2500    -999.2500    -999.2500    56.8667      
7848.5000    54.6333      19.6378      -999.2500    -999.2500    -999.2500    -999.2500    -999.2500    63.6400      
7849.0000    63.3333      22.4333      -999.2500    -999.2500    -999.2500    -999.2500    -999.2500    64.7467      
7849.5000    68.2000      23.5244      -999.2500    -999.2500    -999.2500    -999.2500    -999.2500    62.7467      
7850.0000    67.7000      23.5467      -999.2500    -999.2500    -999.2500    -999.2500    -999.2500    60.1733      
7850.5000    68.1333      22.9133      -999.2500    -999.2500    -999.2500    -999.2500    -999.2500    58.7467      
7851.0000    68.3333      23.1822      -999.2500    124.0000     -999.2500    436.0670     -999.2500    56.2133      
7851.5000    70.3000      23.5622      -999.2500    120.1780     -999.2500    439.3780     1.1224       55.6667      
7852.0000    71.9667      23.5978      0.5277       117.2000     -999.2500    442.8670     1.1227       62.6267      
7852.5000    72.5000      23.6044      0.5588       120.1780     -999.2500    405.8890     1.1231       66.6933      
7853.0000    71.8333      23.6067      0.5912       124.7780     -999.2500    367.0000     1.1251       67.8400      
7853.5000    71.6000      23.6067      0.6152       128.4670     -999.2500    370.6220     1.1253       66.2800      
7854.0000    69.6667      23.6067      0.6286       127.9330     -999.2500    432.7330     1.1282       64.2133      
7854.5000    69.2000      23.6022      0.6515       127.5560     -999.2500    438.1330     1.1304       61.2800      
7855.0000    67.4000      23.6000      0.6780       129.2440     -999.2500    438.1330     1.1307       56.8400      
7855.5000    68.2000      23.6044      0.6794       129.8890     -999.2500    438.1330     1.1300       60.6000      
7856.0000    68.6000      23.6067      0.6787       130.0670     -999.2500    438.1330     1.1296       61.8933      
7856.5000    68.4333      23.6067      0.6878       126.2670     -999.2500    449.6440     1.1282       66.3067      
7857.0000    68.5333      23.6067      0.7028       128.8890     -999.2500    466.7330     1.1256       67.2933      
7857.5000    70.8000      23.6067      0.7144       131.8220     -999.2500    449.2000     1.1233       65.2933      
7858.0000    73.5000      23.6022      0.7136       134.6890     -999.2500    465.8220     1.1244       60.6000      
7858.5000    75.7000      23.6000      0.7071       137.4440     -999.2500    467.3780     1.1282       61.1600      
7859.0000    73.1333      23.6000      0.6928       139.5780     -999.2500    467.7330     1.1322       60.6000      
7859.5000    72.3667      23.5933      0.6780       138.4000     -999.2500    470.3110     1.1347       61.1733      
7860.0000    71.8000      23.6044      0.6636       134.6440     -999.2500    470.5330     1.1342       56.9200      
7860.5000    71.9333      23.6067      0.6515       130.5330     -999.2500    470.5330     1.1291       57.5867      
7861.0000    70.5667      23.6067      0.6462       126.2890     -999.2500    470.5330     1.1238       58.7467      
7861.5000    69.0333      23.6067      0.6515       121.1110     -999.2500    442.5780     1.1202       60.6400      
7862.0000    68.2000      23.6022      0.6575       115.9560     -999.2500    422.7330     1.1200       58.0133      
7862.5000    68.6333      23.6000      0.6711       113.2890     -999.2500    421.9330     1.1218       54.8667      
7863.0000    69.2000      23.6000      0.6766       110.8670     -999.2500    418.3780     1.1216       51.1600      
7863.5000    67.9333      23.6000      0.6753       111.6000     -999.2500    438.8220     1.1202       55.2667      
7864.0000    67.6333      23.5956      0.6670       117.2000     -999.2500    449.2000     1.1200       60.2800      
7864.5000    70.2333      23.5933      0.6623       123.0220     -999.2500    442.6670     1.1242       62.0800      
7865.0000    73.9000      23.5978      0.6691       131.8220     -999.2500    439.0890     1.1267       56.3333      
7865.5000    72.2333      23.6044      0.6857       139.3780     -999.2500    434.8440     1.1256       54.5200      
7866.0000    69.8333      23.6067      0.6913       153.2000     -999.2500    430.6220     1.1218       58.7600      
7866.5000    68.7000      23.6067      0.6913       151.3560     -999.2500    430.2670     1.1222       62.0133      
7867.0000    69.8000      23.6067      0.6942       150.3780     -999.2500    470.0440     1.1429       64.8800      
7867.5000    72.4000      23.6067      0.7195       152.3560     -999.2500    489.9330     1.2289       63.6000      
7868.0000    68.8000      23.6022      0.7284       147.0000     -999.2500    486.7330     1.3596       63.7200      
7868.5000    69.5000      23.5867      0.7269       147.7560     -999.2500    449.8220     1.4107       63.6133      
7869.0000    70.7667      23.6000      0.7085       151.0000     -999.2500    446.6000     1.3404       66.1200      
7869.5000    72.3667      23.6000      0.6892       153.1780     -999.2500    446.6000     1.2133       65.0000      
7870.0000    72.9667      23.6044      0.6787       155.2440     -999.2500    446.6000     1.1431       61.6933      
7870.5000    72.9333      23.6067      0.6829       157.3560     -999.2500    428.2890     1.1264       55.2667      
7871.0000    72.7000      23.6067      0.6829       159.4000     -999.2500    396.7780     1.1227       50.9600      
7871.5000    70.8000      23.6022      0.6914       160.8440     -999.2500    367.2000     1.1331       52.1200      
7872.0000    69.5667      23.6000      0.7397       161.9330     -999.2500    371.6440     1.1782       54.6933      
7872.5000    67.1667      23.6000      0.8254       159.5560     -999.2500    377.2000     1.2611       55.0533      
7873.0000    64.5667      23.6000      0.9190       156.8890     -999.2500    388.8220     1.3607       56.6267      
7873.5000    62.8000      23.6000      0.9602       154.4000     -999.2500    455.4000     1.4402       59.3867      
7874.0000    63.8667      23.6000      0.9691       154.0220     -999.2500    488.2000     1.4500       63.5600      
7874.5000    67.1667      23.6000      0.9612       154.4890     -999.2500    488.2000     1.4220       59.2000      
7875.0000    69.3333      23.6000      0.9475       162.3330     -999.2500    488.3330     1.4329       58.4400      
7875.5000    69.3333      23.5689      0.9379       161.6670     -999.2500    489.2670     1.5351       56.9200      
7876.0000    68.6000      23.2600      0.9142       162.0000     323.6670     486.8890     1.6627       57.6133      
7876.5000    68.9000      23.5333      0.8838       162.7110     321.4220     477.2220     1.7558       55.2800      
