~Version Section
VERS.   2.0:  CWLS Log ASCII Standard - Version 2.0
WRAP.    NO:  One data record per depth sample.
~Well Information Section
# 
# All depths are in TVD_SS.
# Log are manufactured using approximations to the nearest value.
# This file should not be used to load logs back into Finder 
# since depths are not MD.
# 
#MNEM.UNIT      VALUE                    DESCRIPTION
#---------      ----------               -----------
STRT.F        5225.0000                  :START DEPTH
STOP.F        13463.5000                 :STOP DEPTH
STEP.F                  .5               :STEP
NULL.          -999.250000               :NULL VALUE
COMP.                                    :Oil Company
WELL.              214/4-1               :Non unique well name
FLD.                                     :Field name
LOC.  -2.233878, 61.964789             :Location
PROV.                                    :Province
SRVC.                                    :Service
DATE.           2001-12-10               :Date unloaded
UWI.              20806940               :Unique well id
~Curve Information Section
#MNEM.UNIT                   API CODE                 Curve Description
#---------                   ----------               -----------------
VERTICAL-DEPTH-SS.F                                   :DEPTH (TVD_SS)
GR.GAPI                                   :Service = CMP1
HCAL.IN                                   :Service = CMP1
HLLD.OHMM                                   :Service = CMP1
DTCO.US/F                                   :Service = CMP2
DTSM.US/F                                   :Service = CMP2
DT1.US/F                                   :Service = CMP2
RHOZ.G/C3                                   :Service = CMP2
NPHI.                                   :Service = CMP2
~A
# ...
10427.0000   73.7667      16.4956      1.4895       126.3560     337.8220     350.2890     2.2171       46.0000      
10427.5000   73.9333      18.2867      1.4489       126.6440     338.6440     351.4000     2.2338       47.4000      
10428.0000   72.3000      15.5200      1.4728       122.0000     362.2000     337.1330     2.3398       44.4533      
10428.5000   70.6667      15.4778      1.5614       122.1560     350.0440     338.9560     2.3807       40.4267      
10429.0000   68.9667      14.7000      1.7457       120.9330     339.2440     339.3560     2.3880       37.4800      
10429.5000   68.3333      14.8933      1.8315       123.2890     348.7110     337.9780     2.3718       37.8933      
10430.0000   70.9333      15.1267      1.9515       128.4670     400.6000     334.7560     2.3398       40.9733      
10430.5000   72.8667      15.7644      1.8335       128.1780     386.0890     334.6220     2.3049       42.5333      
10431.0000   73.3333      15.9356      1.6034       127.8000     375.5560     342.5330     2.3200       45.5333      
10431.5000   73.2667      15.5911      1.6483       128.1330     405.6000     364.1560     2.3296       48.7200      
10432.0000   74.0333      16.0578      1.6789       129.4220     394.5560     385.6220     2.3051       50.8400      
10432.5000   74.1333      14.7067      1.6265       129.8220     390.8000     412.1330     2.2760       46.7600      
10433.0000   73.2000      14.8644      1.5126       130.9330     382.8000     429.6670     2.2636       43.6133      
10433.5000   72.6333      15.6711      1.4283       132.0670     429.1330     489.8670     2.2584       43.1600      
10434.0000   71.9333      15.8044      1.3879       133.4890     428.7780     526.5110     2.2562       43.3600      
10434.5000   71.8333      15.2489      1.3780       133.4000     439.0890     537.2670     2.2531       44.2800      
10435.0000   71.9000      15.0289      1.4224       132.1560     401.0220     543.3330     2.2469       47.1067      
10435.5000   74.9333      14.9067      1.4268       130.5330     377.8890     562.3550     2.2329       50.0800      
10436.0000   75.6000      15.8800      1.3094       130.5330     377.5330     539.4220     2.2278       46.4933      
10436.5000   73.4000      16.5756      1.3460       130.6890     388.6670     522.3779     2.2807       44.7733      
10437.0000   69.4333      16.0489      1.3965       128.5330     393.8000     468.1330     2.3078       44.4933      
10437.5000   66.2000      16.0133      1.3794       126.2000     391.8670     404.2670     2.3100       42.9467      
10438.0000   64.8000      15.6067      1.3173       126.7330     390.3330     362.1330     2.2904       45.0000      
10438.5000   65.2333      15.7533      1.4478       126.3110     356.9110     373.2000     2.2851       47.5467      
10439.0000   66.4000      16.1800      1.8249       120.3330     349.4000     293.0000     2.3036       47.6800      
10439.5000   70.0333      13.8800      1.7369       121.2000     449.6000     255.0670     2.4013       45.2667      
10440.0000   70.4667      13.3867      1.7049       124.7330     444.0670     260.2220     2.3449       42.4267      
10440.5000   70.5000      13.4467      1.7049       125.5330     455.2220     324.7330     2.2300       40.4800      
10441.0000   70.6667      13.8089      1.7313       123.0000     467.1330     339.0890     2.1547       41.0400      
10441.5000   71.3000      13.8800      1.6670       103.4000     464.4000     346.8440     2.1778       39.8133      
10442.0000   70.7000      13.8600      1.6215       118.8890     477.8000     311.5780     2.2402       39.1200      
10442.5000   67.3667      19.1467      1.6315       121.6220     489.7330     301.5330     2.2956       41.0133      
10443.0000   64.4667      19.3889      1.8168       119.2000     477.1110     297.9560     2.3178       41.8400      
10443.5000   62.7667      16.3089      1.8751       121.0440     472.3110     326.2000     2.3347       42.2267      
10444.0000   61.8000      13.7867      1.7653       123.1110     452.2000     289.3560     2.3513       40.8267      
10444.5000   61.7000      15.2067      1.6893       126.7110     441.1780     358.7560     2.3509       40.2800      
10445.0000   61.9667      13.9667      1.7689       127.0890     433.6670     398.4890     2.3284       42.6400      
10445.5000   68.2000      15.2022      1.4973       129.8670     443.3110     451.4000     2.1851       48.6000      
10446.0000   70.7667      16.1422      1.3922       129.6670     450.5330     479.8670     2.1840       47.3467      
10446.5000   72.0000      17.7600      1.3865       130.3330     465.4670     458.6890     2.2360       45.2933      
10447.0000   72.6333      16.2133      1.4137       130.2440     463.4440     451.9330     2.2158       41.3067      
10447.5000   76.6000      16.9756      1.3585       130.9780     462.2000     461.0670     2.1204       38.8800      
10448.0000   74.9667      19.8222      1.2854       131.7780     451.9110     460.3110     2.0707       41.3733      
10448.5000   71.3000      22.0600      1.4195       131.5110     459.2000     475.9780     2.1560       44.5733      
10449.0000   70.0667      20.8778      1.4283       126.3330     524.5780     489.4440     2.1440       46.0400      
10449.5000   68.0000      20.1333      1.4789       128.4670     558.6219     551.1110     2.1240       45.4533      
10450.0000   66.6333      20.7467      1.5359       128.7560     564.9110     641.0890     2.1684       44.6267      
10450.5000   64.9667      21.0200      1.5693       129.4670     579.6670     718.9330     2.2389       42.8400      
10451.0000   64.3667      18.3600      1.5661       127.2000     591.9330     715.5780     2.2920       42.3733      
10451.5000   63.4333      15.8800      1.5725       126.0440     590.1329     666.6000     2.2833       42.4400      
10452.0000   62.5000      14.1467      1.6232       123.6670     559.4220     636.0670     2.2909       43.5467      
10452.5000   63.8000      14.2400      1.5486       123.3780     474.6440     615.6000     2.3069       44.6800      
10453.0000   68.8333      13.8267      1.5375       124.2670     356.8000     529.1110     2.3380       44.5867      
10453.5000   70.5000      13.7022      1.5328       125.8670     338.8890     471.3330     2.3324       42.4933      
10454.0000   66.5667      13.8289      1.5406       123.7780     422.6670     483.9330     2.2649       43.1200      
10454.5000   65.0333      14.9311      1.4971       125.5780     444.4220     525.7329     2.2500       44.1733      
10455.0000   64.4333      16.0844      1.4138       127.7330     455.0220     519.7999     2.2687       45.0133      
10455.5000   64.4000      15.7156      1.3432       127.7110     443.0670     513.7780     2.2504       44.9200      
10456.0000   64.2333      14.4156      1.3173       130.0000     430.6220     510.7560     2.2204       45.0000      
10456.5000   63.8667      13.9822      1.3823       129.0220     410.8000     552.9780     2.1836       45.6267      
10457.0000   69.7000      17.1600      1.5312       127.9780     406.4670     600.0000     2.0971       46.0133      
10457.5000   69.1667      16.5667      1.5110       127.2440     404.0670     595.2219     2.0209       46.1600      
10458.0000   70.6000      15.2689      1.4548       125.4220     393.6890     589.6219     2.0198       48.2533      
10458.5000   70.4667      14.5244      1.3837       125.1110     429.0220     551.1329     2.1180       48.2400      
10459.0000   69.1333      14.1356      1.4519       125.7330     456.0440     484.6670     2.2687       45.4800      
10459.5000   68.8667      14.0200      1.5954       124.1330     522.7329     485.1110     2.3604       44.1467      
10460.0000   72.6667      13.9600      1.7348       128.4000     504.3780     558.0000     2.3496       47.6533      
10460.5000   73.3000      14.0244      1.6980       128.7110     498.3330     529.2889     2.2853       48.2133      
