~Version Section
VERS.   2.0:  CWLS Log ASCII Standard - Version 2.0
WRAP.    NO:  One data record per depth sample.
~Well Information Section
# 
# All depths are in TVD_SS.
# Log are manufactured using approximations to the nearest value.
# This file should not be used to load logs back into Finder 
# since depths are not MD.
# 
#MNEM.UNIT      VALUE                    DESCRIPTION
#---------      ----------               -----------
STRT.F        5225.0000                  :START DEPTH
STOP.F        13463.5000                 :STOP DEPTH
STEP.F                  .5               :STEP
NULL.          -999.250000               :NULL VALUE
COMP.                                    :Oil Company
WELL.              214/4-1               :Non unique well name
FLD.                                     :Field name
LOC.  -2.233878, 61.964789             :Location
PROV.                                    :Province
SRVC.                                    :Service
DATE.           2001-12-10               :Date unloaded
UWI.              20806940               :Unique well id
~Curve Information Section
#MNEM.UNIT                   API CODE                 Curve Description
#---------                   ----------               -----------------
VERTICAL-DEPTH-SS.F                                   :DEPTH (TVD_SS)
GR.GAPI                                   :Service = CMP1
HCAL.IN                                   :Service = CMP1
HLLD.OHMM                                   :Service = CMP1
DTCO.US/F                                   :Service = CMP2
DTSM.US/F                                   :Service = CMP2
DT1.US/F                                   :Service = CMP2
RHOZ.G/C3                                   :Service = CMP2
NPHI.                                   :Service = CMP2
~A
# ...
13011.0000   30.4333      9.3289       4.5584       79.3333      148.8000     184.4220     2.5338       35.8400      
13011.5000   32.4000      9.3000       4.6957       79.1555      151.5110     207.0000     2.5291       39.1200      
13012.0000   33.2667      9.3267       4.5537       79.7556      142.6000     299.6000     2.5307       38.2267      
13012.5000   33.3667      9.3733       4.4843       79.8444      144.9110     303.1330     2.5396       36.0400      
13013.0000   34.3333      9.5933       4.5397       80.1555      149.1330     303.1330     2.5551       34.4667      
13013.5000   34.1667      9.4267       4.5027       80.2222      149.2890     302.8670     2.5647       32.7600      
13014.0000   33.1000      9.4156       4.4432       79.7333      153.8000     299.6000     2.5618       32.4400      
13014.5000   32.3333      9.3400       4.5027       79.8889      150.8220     259.0440     2.5580       34.2400      
13015.0000   34.4000      9.3600       4.6526       78.9333      154.9110     255.4890     2.5431       35.6000      
13015.5000   33.9000      9.4778       4.6005       79.6667      151.2440     255.4670     2.5313       34.9200      
13016.0000   34.1333      10.5800      4.5258       79.7778      145.7110     377.2440     2.5220       36.0800      
13016.5000   32.4667      10.0178      4.5630       79.8444      143.0890     619.7780     2.5267       33.7600      
13017.0000   32.0667      9.3733       4.6289       79.9333      154.6000     712.5330     2.5347       34.6800      
13017.5000   30.1667      9.4867       4.5120       79.5111      145.6670     712.7329     2.5300       31.5867      
13018.0000   30.1000      9.4622       4.4569       78.6667      146.3330     713.2889     2.5233       31.0800      
13018.5000   30.5333      9.4511       4.5073       79.2000      143.5110     587.5560     2.5218       32.1333      
13019.0000   31.6000      9.9267       4.5258       79.8000      152.7330     343.4670     2.5098       33.6800      
13019.5000   31.4000      9.6044       4.4889       79.8222      145.2000     252.6000     2.4862       34.7200      
13020.0000   32.8000      9.4200       4.4981       79.4667      149.2000     252.8670     2.4964       39.1200      
13020.5000   33.3333      9.5133       4.4614       79.2889      151.4670     252.8670     2.5342       38.3733      
13021.0000   34.6000      10.2711      4.3890       79.0667      153.2440     252.8670     2.5547       37.2667      
13021.5000   32.3000      10.8556      4.4341       79.3111      153.3780     253.6670     2.5493       34.7067      
13022.0000   34.4000      9.6178       4.6053       79.1778      150.6000     268.1110     2.5480       34.3200      
13022.5000   33.9667      9.5133       4.6861       78.4667      147.2220     269.4440     2.5484       34.5600      
13023.0000   31.9667      9.4978       4.7634       78.7111      143.8440     318.0440     2.5480       34.5067      
13023.5000   31.6333      9.3600       4.7683       78.6889      145.4890     371.2670     2.5449       35.0133      
13024.0000   33.2000      9.2933       4.7585       78.7111      140.8000     346.3330     2.5456       36.9200      
13024.5000   32.9000      9.2755       4.7343       78.8000      140.0440     261.0440     2.5596       36.4000      
13025.0000   33.4000      9.3978       4.8869       78.6889      144.8670     152.9330     2.5736       35.6000      
13025.5000   36.0000      9.6800       4.8569       78.2000      144.9560     145.1330     2.5607       32.6533      
13026.0000   35.5667      9.4756       4.7634       78.5778      145.5560     167.1330     2.5433       31.2000      
13026.5000   34.9667      9.3400       4.7343       78.7333      147.3780     255.6440     2.5462       32.6133      
13027.0000   34.4667      9.2844       4.6100       80.0000      149.4220     310.1780     2.5507       33.5200      
13027.5000   34.3333      9.4822       4.5537       79.7333      149.7110     333.0890     2.5456       36.4400      
13028.0000   32.3667      9.5067       4.6957       79.5333      146.0670     403.5560     2.5336       36.0267      
13028.5000   30.8333      9.5467       4.6479       79.4667      146.5330     403.2220     2.5420       36.3333      
13029.0000   29.9000      9.4867       4.4981       79.4889      145.5110     365.3110     2.5380       35.5200      
13029.5000   29.4000      9.6400       4.5911       79.0000      144.8670     362.0000     2.5271       36.3600      
13030.0000   30.4667      9.3467       4.5958       79.8000      144.5330     362.0000     2.5227       35.1600      
13030.5000   31.6667      9.5733       4.6909       79.5556      178.1330     260.6670     2.5380       36.9200      
13031.0000   30.8000      9.4689       4.7101       79.2000      156.6000     275.8220     2.5398       37.5067      
13031.5000   31.3000      9.2867       4.7005       79.4000      164.8670     277.2440     2.5418       37.9600      
13032.0000   32.2000      9.3889       4.6383       79.2000      147.0000     277.3330     2.5418       37.3200      
13032.5000   32.9000      9.4867       4.7005       79.4000      145.9560     277.2220     2.5300       36.5200      
13033.0000   31.9667      9.3978       4.7732       78.9333      163.7330     434.4000     2.5207       36.0000      
13033.5000   32.1667      9.0778       4.7343       79.6000      193.2000     473.2890     2.5484       36.0800      
13034.0000   32.7000      9.0933       4.7005       79.1333      155.1110     546.7780     2.5640       35.3333      
13034.5000   32.3667      9.2267       4.6813       79.4222      146.3560     616.1560     2.5582       34.3467      
13035.0000   31.3667      9.2800       4.6717       79.6000      143.4000     673.3109     2.5518       33.5200      
13035.5000   31.6000      9.2578       4.6669       79.2889      144.2670     699.7329     2.5509       33.7200      
13036.0000   33.8000      9.2467       4.6669       80.2000      143.0440     709.0439     2.5456       33.4400      
13036.5000   32.9333      9.3867       4.6813       80.0000      142.6440     718.8669     2.5271       34.1467      
13037.0000   31.8000      9.2733       4.5864       80.0444      143.6440     734.7780     2.5200       34.8800      
13037.5000   31.6667      9.3467       4.5817       80.0222      144.2670     736.6000     2.5262       33.2000      
13038.0000   33.1000      9.5333       4.5911       79.1778      146.4890     736.0670     2.5440       32.9867      
13038.5000   35.7333      9.0933       4.8371       77.7556      148.8670     737.4220     2.5798       33.8000      
13039.0000   37.3000      9.1533       4.8470       77.8000      147.5110     712.4669     2.5811       32.8133      
13039.5000   37.0000      9.1222       4.7053       77.6667      145.6890     708.4890     2.5664       31.6933      
13040.0000   37.4667      9.3133       4.6957       78.0667      144.0000     691.0670     2.5520       31.6133      
13040.5000   34.6000      9.2533       4.7879       78.6222      145.1560     728.5330     2.5556       33.7467      
13041.0000   33.3667      9.3378       4.8371       78.6667      147.1330     731.8889     2.5771       35.7600      
13041.5000   34.1000      9.3067       4.8869       77.2444      155.9330     730.7329     2.5807       34.6133      
13042.0000   34.7333      9.0911       4.9472       76.6889      144.4440     731.9330     2.5693       35.6400      
13042.5000   33.0000      9.1178       4.8273       76.6222      145.2670     729.7999     2.5569       34.7067      
13043.0000   33.8000      10.2733      4.7683       76.2000      170.4890     696.2219     2.5364       34.0133      
13043.5000   34.9000      10.0156      4.8273       77.2222      148.6220     690.6670     2.5113       30.3600      
13044.0000   36.8000      9.1733       5.2767       77.6000      152.3330     694.0670     2.5467       32.4800      
13044.5000   33.6000      9.0133       5.1487       77.6444      142.5560     693.6000     2.5611       31.7200      
