~Version Section
VERS.   2.0:  CWLS Log ASCII Standard - Version 2.0
WRAP.    NO:  One data record per depth sample.
~Well Information Section
# 
# All depths are in TVD_SS.
# Log are manufactured using approximations to the nearest value.
# This file should not be used to load logs back into Finder 
# since depths are not MD.
# 
#MNEM.UNIT      VALUE                    DESCRIPTION
#---------      ----------               -----------
STRT.F        5225.0000                  :START DEPTH
STOP.F        13463.5000                 :STOP DEPTH
STEP.F                  .5               :STEP
NULL.          -999.250000               :NULL VALUE
COMP.                                    :Oil Company
WELL.              214/4-1               :Non unique well name
FLD.                                     :Field name
LOC.  -2.233878, 61.964789             :Location
PROV.                                    :Province
SRVC.                                    :Service
DATE.           2001-12-10               :Date unloaded
UWI.              20806940               :Unique well id
~Curve Information Section
#MNEM.UNIT                   API CODE                 Curve Description
#---------                   ----------               -----------------
VERTICAL-DEPTH-SS.F                                   :DEPTH (TVD_SS)
GR.GAPI                                   :Service = CMP1
HCAL.IN                                   :Service = CMP1
HLLD.OHMM                                   :Service = CMP1
DTCO.US/F                                   :Service = CMP2
DTSM.US/F                                   :Service = CMP2
DT1.US/F                                   :Service = CMP2
RHOZ.G/C3                                   :Service = CMP2
NPHI.                                   :Service = CMP2
~A
# ...
12671.0000   33.3667      10.8156      6.1459       82.1333      154.7330     137.4670     2.4940       32.6933      
12671.5000   33.7667      10.8689      6.1648       82.5111      153.6670     137.6000     2.4869       32.0800      
12672.0000   34.1000      10.9067      6.2218       82.5333      152.8000     138.9560     2.4773       33.5200      
12672.5000   33.3333      10.8733      6.3896       82.7333      165.6000     164.9330     2.4873       37.5600      
12673.0000   33.7000      10.8533      6.4355       82.6222      159.4670     177.8670     2.4900       36.8400      
12673.5000   33.3667      10.8644      6.5485       82.4667      155.6440     180.1780     2.4804       36.2133      
12674.0000   32.0667      10.9067      6.5619       82.6000      154.6000     206.6440     2.4713       36.0933      
12674.5000   30.6000      10.9933      6.5017       83.0889      152.2670     208.1330     2.4796       35.3200      
12675.0000   31.2333      11.0200      6.5017       83.0889      154.2670     199.5110     2.4929       34.9867      
12675.5000   31.8000      11.0022      6.4686       82.6667      154.8220     189.4670     2.4976       35.8800      
12676.0000   33.2667      11.0000      6.4487       83.3333      153.0220     172.4670     2.5000       35.0400      
12676.5000   36.4000      11.0422      6.4421       82.4889      152.7780     179.5110     2.4982       35.7200      
12677.0000   34.3667      11.0778      6.6703       82.1555      152.4000     181.0220     2.4880       36.7600      
12677.5000   30.8000      11.1044      6.7873       81.8444      154.2670     190.9560     2.4831       36.1467      
12678.0000   31.6000      11.1244      6.7113       81.7778      152.8890     361.4000     2.4791       35.6933      
12678.5000   32.6000      11.1467      6.6498       82.5333      152.2670     361.1560     2.4776       35.0933      
12679.0000   33.5333      11.1933      6.5017       81.6000      152.2220     361.1330     2.4751       36.0800      
12679.5000   32.0000      11.2044      6.5151       81.7333      152.2000     225.0890     2.4813       35.8800      
12680.0000   33.3000      11.1978      6.5754       81.6444      152.3330     157.1110     2.4856       35.3333      
12680.5000   31.3000      11.1400      6.6159       82.6667      153.3330     157.5560     2.4909       33.9600      
12681.0000   30.8000      11.1222      6.7527       82.1778      152.0670     158.2220     2.4949       34.6400      
12681.5000   31.2667      11.0822      6.7527       82.0000      151.2670     160.5110     2.4900       37.8933      
12682.0000   32.5000      11.0600      6.6908       81.9556      151.7330     160.5330     2.4853       38.4667      
12682.5000   32.9000      11.0800      6.6839       81.6000      151.2670     160.4890     2.4949       39.2000      
12683.0000   31.4333      11.0556      6.7943       81.9778      152.0440     165.1780     2.5062       38.8533      
12683.5000   30.5000      10.9956      7.0348       81.2000      152.2000     165.2670     2.5091       34.8533      
12684.0000   31.2333      10.9800      7.0999       81.1778      152.3110     160.6000     2.5076       32.0000      
12684.5000   31.3333      11.0089      7.1072       81.6000      152.7560     145.2220     2.5040       32.2400      
12685.0000   32.8667      11.0667      7.0133       81.4444      154.4670     137.5330     2.4969       32.1200      
12685.5000   33.6000      11.0978      6.9418       82.2667      151.8000     137.5330     2.4858       33.7200      
12686.0000   29.3667      11.0511      6.8221       81.3555      158.4670     144.2000     2.4653       34.4000      
12686.5000   27.5667      11.0378      6.8641       81.1778      153.5330     148.0890     2.4687       35.2000      
12687.0000   26.4000      10.9800      6.9632       80.6444      152.3330     148.1330     2.4747       34.3600      
12687.5000   26.1333      10.9978      6.9632       80.5556      153.0000     153.0670     2.4773       35.2000      
12688.0000   28.1667      11.0244      6.6227       80.8444      154.1330     214.3330     2.4760       36.2800      
12688.5000   28.7000      11.0311      6.5418       80.9778      155.0890     234.5110     2.4800       35.5867      
12689.0000   27.4000      11.0533      6.6294       81.1778      173.8000     266.2440     2.4860       35.4400      
12689.5000   28.0667      11.0044      6.7182       81.2000      153.2000     268.2000     2.4938       34.6667      
12690.0000   29.9000      10.9800      6.8152       81.0000      154.9110     268.2000     2.5020       34.4400      
12690.5000   31.6000      10.9689      6.9917       81.4222      157.3560     268.2000     2.5024       35.3333      
12691.0000   32.8000      10.9489      7.0420       81.4000      182.0000     268.2000     2.4942       34.6400      
12691.5000   32.8333      10.9267      6.9632       81.5556      154.7780     268.2000     2.4831       34.2133      
12692.0000   31.6000      10.9511      6.8782       80.8444      151.6000     268.2000     2.4753       33.9067      
12692.5000   28.8667      10.9911      6.8641       80.8000      161.1330     268.2000     2.4880       35.5867      
12693.0000   31.8667      10.9200      7.0276       80.5556      177.2670     193.8890     2.4996       38.7600      
12693.5000   33.8000      10.9000      7.1803       80.3555      152.4670     156.7330     2.5042       38.1467      
12694.0000   33.3667      10.9267      7.3363       80.3778      153.0440     156.7330     2.5042       37.1200      
12694.5000   32.7000      10.9067      7.3966       80.9333      154.0000     125.7560     2.4953       32.6133      
12695.0000   34.4000      11.0244      6.9001       81.8000      159.8220     110.2670     2.4973       33.2533      
12695.5000   32.9333      11.0733      5.8649       82.6000      160.6000     110.2670     2.4936       36.1600      
12696.0000   29.9667      11.0556      5.2934       83.0667      159.0890     110.2670     2.4809       35.9467      
12696.5000   26.3000      11.0467      5.0084       83.6222      158.3560     110.2670     2.4809       35.6667      
12697.0000   27.1667      11.0600      5.1015       83.5778      157.5560     110.2670     2.4904       34.5600      
12697.5000   31.0000      11.0044      5.2929       82.2444      162.4670     110.2670     2.4876       35.2800      
12698.0000   29.4000      10.9533      5.2821       82.1333      155.1330     110.2670     2.4787       35.9600      
12698.5000   28.0333      10.9778      5.2605       82.1555      155.7330     110.2670     2.4838       37.0000      
12699.0000   27.7667      11.0222      5.3749       81.4667      155.8440     110.2670     2.4949       35.0400      
12699.5000   28.4667      11.0644      5.6860       81.6000      153.7330     211.4670     2.5073       32.0000      
12700.0000   28.3000      11.1156      5.8274       80.6667      154.0670     211.0670     2.5060       32.6000      
12700.5000   28.3000      11.1556      5.9540       81.2000      153.3780     205.8220     2.5102       32.0400      
12701.0000   29.0000      11.2133      5.9662       81.3111      152.0000     199.6440     2.5116       32.6933      
12701.5000   28.2667      11.2733      5.8215       81.6667      151.9330     192.0220     2.5178       33.1867      
12702.0000   29.3333      11.2600      5.8214       81.7556      151.3780     221.2670     2.5249       36.8800      
12702.5000   30.4000      11.3378      5.7094       82.0000      149.8670     221.2670     2.5147       35.8000      
12703.0000   29.9667      11.4000      5.5937       82.0444      151.6440     221.2670     2.5022       37.3200      
12703.5000   28.5000      11.4667      5.3639       82.2667      151.8890     221.0890     2.4904       36.7600      
12704.0000   31.0333      11.5244      5.1015       82.3333      151.8000     192.1330     2.4887       37.8800      
12704.5000   33.9000      11.5267      5.2391       82.0889      151.6670     186.8220     2.4911       39.6000      
