~Version Section
VERS.   2.0:  CWLS Log ASCII Standard - Version 2.0
WRAP.    NO:  One data record per depth sample.
~Well Information Section
# 
# All depths are in TVD_SS.
# Log are manufactured using approximations to the nearest value.
# This file should not be used to load logs back into Finder 
# since depths are not MD.
# 
#MNEM.UNIT      VALUE                    DESCRIPTION
#---------      ----------               -----------
STRT.F        5225.0000                  :START DEPTH
STOP.F        13463.5000                 :STOP DEPTH
STEP.F                  .5               :STEP
NULL.          -999.250000               :NULL VALUE
COMP.                                    :Oil Company
WELL.              214/4-1               :Non unique well name
FLD.                                     :Field name
LOC.  -2.233878, 61.964789             :Location
PROV.                                    :Province
SRVC.                                    :Service
DATE.           2001-12-10               :Date unloaded
UWI.              20806940               :Unique well id
~Curve Information Section
#MNEM.UNIT                   API CODE                 Curve Description
#---------                   ----------               -----------------
VERTICAL-DEPTH-SS.F                                   :DEPTH (TVD_SS)
GR.GAPI                                   :Service = CMP1
HCAL.IN                                   :Service = CMP1
HLLD.OHMM                                   :Service = CMP1
DTCO.US/F                                   :Service = CMP2
DTSM.US/F                                   :Service = CMP2
DT1.US/F                                   :Service = CMP2
RHOZ.G/C3                                   :Service = CMP2
NPHI.                                   :Service = CMP2
~A
# ...
10801.0000   83.7667      17.1422      1.2376       136.1330     325.5330     335.7780     2.1927       45.8800      
10801.5000   74.7333      16.9533      1.4579       133.2000     334.0890     342.2000     2.1849       44.3333      
10802.0000   73.9667      16.6800      1.5048       131.2670     320.3780     317.0000     2.1804       41.4800      
10802.5000   73.5333      16.8244      1.5359       130.0890     295.8220     320.8000     2.1936       40.4000      
10803.0000   72.8667      17.5133      1.4956       130.0000     345.2000     312.0000     2.2282       41.0133      
10803.5000   72.2667      17.2956      1.4181       131.7780     370.3330     315.6670     2.2336       41.3467      
10804.0000   75.3333      17.0444      1.3542       132.4670     363.4000     357.3330     2.1987       44.4133      
10804.5000   78.4333      17.2667      1.3710       133.3110     342.6440     401.8890     2.1649       47.3733      
10805.0000   80.8333      17.1667      1.3837       133.2440     351.2670     420.8000     2.1796       42.0133      
10805.5000   83.2333      17.0133      1.3269       132.4440     369.4670     406.7330     2.1949       38.6000      
10806.0000   85.6333      17.0156      1.2014       134.6000     360.2670     388.7330     2.2193       39.4533      
10806.5000   87.7333      16.7867      1.2988       135.0890     362.7780     320.0670     2.2616       42.4000      
10807.0000   87.7333      16.9933      1.4940       135.2220     346.3780     319.5110     2.2893       43.4800      
10807.5000   86.5667      16.6867      1.4268       134.1330     315.4670     310.1330     2.1924       42.6800      
10808.0000   86.0333      16.6267      1.4051       132.9330     320.4220     380.0440     2.1351       41.6933      
10808.5000   86.0000      16.5400      1.3364       133.6670     307.2000     416.0440     2.0987       41.4133      
10809.0000   86.0667      16.7400      1.2775       132.6000     329.8000     422.6670     2.0809       42.4000      
10809.5000   86.1667      16.8267      1.3133       131.4440     327.4220     434.9780     2.0558       41.8533      
10810.0000   87.5333      16.8333      1.3200       132.5330     340.6440     391.7330     2.0329       41.6000      
10810.5000   89.3000      16.8667      1.2880       131.6440     332.6000     406.3330     2.0809       43.0000      
10811.0000   90.3000      16.7889      1.2827       136.4670     322.1330     377.6890     2.1369       44.2533      
10811.5000   89.0000      16.3667      1.2775       135.7330     334.2440     321.2000     2.1751       44.4400      
10812.0000   90.2667      17.0000      1.2854       135.5110     336.7560     335.7560     2.1773       44.3600      
10812.5000   90.3333      16.9311      1.2854       134.8440     349.9330     348.4440     2.1807       43.6267      
10813.0000   89.1333      16.6267      1.2959       136.2670     337.4000     400.7110     2.1787       43.5733      
10813.5000   87.9333      16.7956      1.2973       137.7330     317.7110     409.0440     2.1987       43.7733      
10814.0000   86.7667      16.3067      1.3026       132.8220     301.1330     410.6000     2.2262       44.0000      
10814.5000   84.9000      16.6489      1.3377       126.5110     306.0890     387.0670     2.2527       44.6533      
10815.0000   83.1667      16.1956      1.3682       116.8000     315.1780     393.6000     2.2482       44.8133      
10815.5000   83.0333      16.5378      1.3570       136.8670     331.1560     364.0220     2.1902       43.3200      
10816.0000   86.0000      16.4911      1.3214       134.9780     334.8670     352.5780     2.1827       44.2400      
10816.5000   84.2000      16.2533      1.2893       132.7780     328.9560     352.2220     2.1936       47.5200      
10817.0000   83.2000      16.4222      1.2999       -999.2500    349.4670     378.1330     2.1947       53.2400      
10817.5000   82.9333      16.6467      1.3309       -999.2500    378.0000     400.0670     2.1956       47.7600      
10818.0000   85.3000      16.5222      1.3640       135.6670     373.0670     378.4220     2.2067       46.9200      
10818.5000   81.6000      16.2867      1.4094       132.6670     369.0220     352.5560     2.2433       47.7200      
10819.0000   78.8667      16.2467      1.4849       134.2670     358.4440     305.2670     2.2324       46.1200      
10819.5000   78.0333      16.3489      1.5838       132.3110     329.7780     305.5780     2.2102       48.0800      
10820.0000   83.2667      15.9911      1.6282       131.8670     267.5560     285.1330     2.1980       48.6667      
10820.5000   83.7667      16.3178      1.6149       132.3330     258.4220     287.9780     2.2002       48.8400      
10821.0000   85.0000      17.2467      1.5838       131.7780     251.9780     293.5560     2.2084       46.3333      
10821.5000   81.1667      16.7400      1.5581       131.4670     251.4890     308.4440     2.2320       46.1600      
10822.0000   78.8000      16.6378      1.4623       132.0000     327.0670     351.5560     2.2209       46.5600      
10822.5000   79.7667      16.5267      1.4268       131.6890     324.2670     340.3780     2.2056       48.2800      
10823.0000   80.9000      16.2000      1.4668       132.1560     303.7560     322.4000     2.1973       51.4000      
10823.5000   80.8000      16.3200      1.5079       138.0670     286.3330     314.8670     2.2020       54.2267      
10824.0000   81.7000      16.0556      1.4594       136.0220     288.5330     287.8000     2.1998       56.0400      
10824.5000   82.1333      15.7867      1.3696       134.2890     281.7330     377.8000     2.1831       55.8933      
10825.0000   83.4333      15.9800      1.3696       133.9560     280.9330     374.5330     2.1716       48.1200      
10825.5000   85.0000      15.8933      1.3936       133.5330     266.0000     379.2000     2.1698       45.2000      
10826.0000   85.0333      16.3444      1.4283       134.3110     274.6000     378.1780     2.1529       42.5600      
10826.5000   84.2667      16.8356      1.5487       134.8000     263.7330     338.6000     2.1338       43.4933      
10827.0000   84.6667      16.2533      1.7853       133.5560     287.7110     316.6220     2.1562       43.2533      
10827.5000   89.0000      16.7600      1.6117       134.2220     304.5560     338.7110     2.1920       42.6267      
10828.0000   90.2000      15.4067      1.6083       134.1780     324.2000     352.7330     2.2284       42.1600      
10828.5000   90.8667      15.7578      1.7473       133.4890     328.4440     331.3560     2.2682       42.9733      
10829.0000   92.7333      15.9067      1.7313       131.9560     292.6670     262.4440     2.2847       46.2933      
10829.5000   100.9670     15.8022      1.7330       127.2670     296.0670     232.4670     2.1673       45.7600      
10830.0000   102.5000     15.8022      1.8354       126.8000     320.9330     276.9330     2.1513       44.2000      
10830.5000   100.4000     15.7600      2.0605       126.0890     319.0440     345.6000     2.2140       42.9333      
10831.0000   99.7333      15.7000      2.1136       125.6220     331.5330     342.0670     2.2520       44.8533      
10831.5000   99.2667      15.6556      2.0249       130.1110     311.1330     336.9330     2.2442       49.7467      
10832.0000   92.5000      14.9600      1.7105       133.7330     333.2000     312.4890     2.1982       50.4400      
10832.5000   83.1000      15.9267      1.5919       129.8440     311.8440     312.6000     2.1447       47.0933      
10833.0000   81.9000      15.4311      1.5693       102.0670     290.4000     310.9560     2.1711       46.1333      
10833.5000   82.4333      15.0400      1.4864       115.9560     295.2440     297.0670     2.2247       48.3733      
10834.0000   85.6000      15.0578      1.4971       129.9330     329.9780     305.5780     2.2856       49.2267      
10834.5000   86.6000      15.7267      1.6217       131.1780     352.9560     313.7560     2.2920       45.9200      
