~Version Section
VERS.   2.0:  CWLS Log ASCII Standard - Version 2.0
WRAP.    NO:  One data record per depth sample.
~Well Information Section
# 
# All depths are in TVD_SS.
# Log are manufactured using approximations to the nearest value.
# This file should not be used to load logs back into Finder 
# since depths are not MD.
# 
#MNEM.UNIT      VALUE                    DESCRIPTION
#---------      ----------               -----------
STRT.F        5225.0000                  :START DEPTH
STOP.F        13463.5000                 :STOP DEPTH
STEP.F                  .5               :STEP
NULL.          -999.250000               :NULL VALUE
COMP.                                    :Oil Company
WELL.              214/4-1               :Non unique well name
FLD.                                     :Field name
LOC.  -2.233878, 61.964789             :Location
PROV.                                    :Province
SRVC.                                    :Service
DATE.           2001-12-10               :Date unloaded
UWI.              20806940               :Unique well id
~Curve Information Section
#MNEM.UNIT                   API CODE                 Curve Description
#---------                   ----------               -----------------
VERTICAL-DEPTH-SS.F                                   :DEPTH (TVD_SS)
GR.GAPI                                   :Service = CMP1
HCAL.IN                                   :Service = CMP1
HLLD.OHMM                                   :Service = CMP1
DTCO.US/F                                   :Service = CMP2
DTSM.US/F                                   :Service = CMP2
DT1.US/F                                   :Service = CMP2
RHOZ.G/C3                                   :Service = CMP2
NPHI.                                   :Service = CMP2
~A
# ...
12229.0000   84.8000      15.3044      4.5537       102.4670     207.4670     472.7330     2.4038       24.6267      
12229.5000   83.7000      15.4933      4.6431       104.1560     236.9330     537.3779     2.3960       24.0400      
12230.0000   84.5000      15.4600      4.6813       107.3560     233.4000     576.8669     2.3907       23.2000      
12230.5000   86.0667      15.4556      4.5774       110.8440     234.7560     558.4669     2.3793       23.0800      
12231.0000   105.2000     15.2622      3.0943       111.9330     239.1110     537.6000     2.3644       30.8400      
12231.5000   103.8670     15.9356      2.6446       108.9780     220.6670     523.5780     2.3631       36.4133      
12232.0000   93.2667      15.3000      2.9125       106.7330     223.2670     509.1330     2.3573       37.1333      
12232.5000   85.8000      15.4200      3.7358       104.2220     222.2440     566.6000     2.3562       33.5333      
12233.0000   94.3000      15.0156      3.7763       104.4000     220.8000     554.7999     2.3916       24.0000      
12233.5000   93.2333      14.9222      3.5078       103.1330     226.3110     562.5780     2.4127       26.2800      
12234.0000   92.1333      14.8533      3.7876       104.3780     237.2220     579.6890     2.4100       26.1867      
12234.5000   90.9000      14.8867      3.6957       107.7560     252.4440     583.2889     2.3982       26.8400      
12235.0000   91.7667      14.8711      3.6135       108.9330     264.4890     603.2670     2.3829       27.5867      
12235.5000   96.3000      15.0844      3.1730       110.4000     228.7330     601.7109     2.3602       29.6400      
12236.0000   95.5333      15.0956      3.6703       108.5780     230.7780     563.4890     2.3451       29.0400      
12236.5000   93.2667      15.0222      4.1530       107.5780     237.9330     554.9330     2.3300       27.3200      
12237.0000   88.3000      14.9400      3.8385       102.3560     251.4000     551.7109     2.3387       25.6800      
12237.5000   85.5333      14.7556      3.8621       99.0000      242.6670     544.2670     2.3513       26.2800      
12238.0000   83.5333      14.6667      4.6383       99.0444      283.3330     583.6439     2.3458       24.9467      
12238.5000   71.0000      14.4733      4.3534       100.7560     280.3110     627.5330     2.3264       24.1600      
12239.0000   71.8000      14.3978      4.1409       103.4440     265.4220     623.4890     2.3153       25.5733      
12239.5000   75.8333      14.4000      3.3274       107.7780     256.6670     593.3330     2.3238       29.6400      
12240.0000   82.3667      14.4000      3.1152       111.2440     243.5560     591.3779     2.3511       32.7467      
12240.5000   94.2667      14.4600      3.6478       109.1780     244.4220     633.5330     2.3633       30.7200      
12241.0000   87.1667      14.4089      3.8699       107.3330     236.1330     620.7109     2.3460       26.9733      
12241.5000   77.1333      14.7067      3.7490       107.5110     238.8890     592.0670     2.3447       25.1200      
12242.0000   76.2667      14.5022      3.7337       108.1780     241.8890     571.3550     2.3482       27.0533      
12242.5000   86.1333      14.5422      3.8031       115.3330     269.6000     485.3330     2.3556       28.7333      
12243.0000   93.2667      14.6933      3.4443       116.1560     273.4000     508.7560     2.3633       27.3600      
12243.5000   101.1670     14.5756      3.1027       118.1330     269.8000     527.8669     2.3789       28.9733      
12244.0000   107.0000     14.4200      3.0458       116.9560     261.7560     532.9110     2.3796       32.8133      
12244.5000   105.2330     14.4689      3.0551       111.8890     257.5330     536.2670     2.3722       34.0000      
12245.0000   93.4667      14.3267      3.1475       107.6440     231.5330     636.0000     2.3464       37.0000      
12245.5000   84.1333      14.4733      3.8175       106.4220     225.1780     628.2670     2.3549       37.7067      
12246.0000   72.7667      14.4889      5.1585       106.5330     217.3560     608.3330     2.3596       35.0533      
12246.5000   71.3667      14.4044      5.8753       110.0000     233.6000     614.3779     2.3462       28.8667      
12247.0000   79.8667      14.3289      4.4984       115.1560     249.1330     618.4440     2.3407       26.4400      
12247.5000   97.2000      14.7667      3.1377       122.4000     298.2220     604.7550     2.3669       30.6667      
12248.0000   101.9000     14.1600      3.0458       121.7560     385.4670     630.6219     2.3740       32.2933      
12248.5000   103.1000     14.1422      2.9719       118.8670     361.4890     642.3109     2.3704       34.2800      
12249.0000   102.4000     14.4867      3.1766       117.6670     347.0220     636.2670     2.3862       36.4800      
12249.5000   101.0670     14.1267      3.5809       113.8440     331.2220     622.0000     2.3969       37.1600      
12250.0000   92.6667      13.9733      4.6630       111.2220     306.3330     604.3550     2.4004       32.2267      
12250.5000   91.0333      13.8644      4.6671       112.5110     307.5560     598.2670     2.3956       29.1467      
12251.0000   90.6000      13.8267      4.0042       116.1330     276.8220     606.0439     2.3960       25.1200      
12251.5000   93.9000      13.7800      3.4756       115.8000     241.8670     606.8440     2.3913       29.3600      
12252.0000   97.1000      14.3733      3.5840       116.1780     251.2890     592.6000     2.3964       32.4267      
12252.5000   105.7000     14.2067      3.6997       115.1560     245.5330     658.8889     2.4224       34.8667      
12253.0000   100.7330     14.0467      4.2488       112.1780     231.5110     693.9330     2.4251       36.2800      
12253.5000   96.4000      13.7044      5.0200       109.5780     217.0670     688.4000     2.4091       35.8000      
12254.0000   82.3333      13.6067      5.4412       104.2670     220.8000     682.5330     2.3978       32.9067      
12254.5000   76.6667      13.3889      4.9777       93.2667      227.7330     611.3550     2.3787       23.6400      
12255.0000   78.9333      13.3044      5.2018       95.2444      215.3110     539.2000     2.3667       22.7600      
12255.5000   79.5333      13.3111      5.4246       97.0667      203.0670     478.7330     2.3593       23.7067      
12256.0000   79.9667      13.3533      5.1278       99.1333      193.4000     471.3330     2.3571       26.5733      
12256.5000   83.0000      13.3911      5.1067       104.3780     193.6220     438.9110     2.3451       30.9333      
12257.0000   87.3333      13.0800      5.0859       111.6670     192.7330     401.2670     2.2884       35.8400      
12257.5000   80.0333      13.0667      5.3918       112.1560     192.5110     401.6890     2.2660       37.7200      
12258.0000   73.9667      13.2422      6.1154       111.3560     196.7330     404.7560     2.2593       39.1467      
12258.5000   70.6000      13.3333      6.5890       111.4670     206.0890     416.9780     2.2651       39.8000      
12259.0000   69.2000      13.3000      6.6091       114.7780     213.6000     433.7560     2.2780       39.9200      
12259.5000   63.4333      13.4400      6.2666       113.8440     197.8440     531.9110     2.2773       40.3733      
12260.0000   56.3667      13.2689      6.3700       111.9330     195.6220     567.6000     2.2547       27.9067      
12260.5000   52.6333      13.0778      5.9062       108.6220     194.8220     563.4000     2.2340       22.4267      
12261.0000   51.1000      12.8333      5.1499       105.3110     189.3330     562.0890     2.2213       22.0133      
12261.5000   54.6333      12.6311      4.5684       98.2667      189.4440     554.6219     2.2264       24.0800      
12262.0000   64.9000      12.4667      4.0028       95.4000      181.7330     552.5780     2.2607       29.0400      
12262.5000   69.9667      12.4178      4.1745       95.7778      189.1560     526.3779     2.2896       26.5600      
