~Version Section
VERS.   2.0:  CWLS Log ASCII Standard - Version 2.0
WRAP.    NO:  One data record per depth sample.
~Well Information Section
# 
# All depths are in TVD_SS.
# Log are manufactured using approximations to the nearest value.
# This file should not be used to load logs back into Finder 
# since depths are not MD.
# 
#MNEM.UNIT      VALUE                    DESCRIPTION
#---------      ----------               -----------
STRT.F        5225.0000                  :START DEPTH
STOP.F        13463.5000                 :STOP DEPTH
STEP.F                  .5               :STEP
NULL.          -999.250000               :NULL VALUE
COMP.                                    :Oil Company
WELL.              214/4-1               :Non unique well name
FLD.                                     :Field name
LOC.  -2.233878, 61.964789             :Location
PROV.                                    :Province
SRVC.                                    :Service
DATE.           2001-12-10               :Date unloaded
UWI.              20806940               :Unique well id
~Curve Information Section
#MNEM.UNIT                   API CODE                 Curve Description
#---------                   ----------               -----------------
VERTICAL-DEPTH-SS.F                                   :DEPTH (TVD_SS)
GR.GAPI                                   :Service = CMP1
HCAL.IN                                   :Service = CMP1
HLLD.OHMM                                   :Service = CMP1
DTCO.US/F                                   :Service = CMP2
DTSM.US/F                                   :Service = CMP2
DT1.US/F                                   :Service = CMP2
RHOZ.G/C3                                   :Service = CMP2
NPHI.                                   :Service = CMP2
~A
# ...
8931.0000    52.1333      13.4489      1.3965       128.6220     344.8000     327.3560     2.0536       38.3600      
8931.5000    53.5000      13.4889      1.3780       129.4000     342.7330     323.2000     2.0509       38.2800      
8932.0000    51.9000      13.5044      1.3487       129.7560     346.8000     323.7780     2.0460       40.7067      
8932.5000    50.1000      13.3422      1.3336       130.4000     345.6440     326.4000     2.0502       41.1733      
8933.0000    48.0667      13.2889      1.3336       129.9330     343.4670     324.9330     2.0507       41.3333      
8933.5000    47.8333      12.9467      1.3268       130.4670     347.8220     327.6670     2.0502       39.3733      
8934.0000    47.1333      13.0533      1.3187       131.3110     357.7330     322.8670     2.0480       38.2800      
8934.5000    47.1667      13.2067      1.3026       132.3780     345.8000     323.1330     2.0491       38.6267      
8935.0000    48.7000      13.1333      1.3079       132.8000     349.5330     320.4000     2.0511       39.1200      
8935.5000    50.9667      13.1244      1.3160       132.5110     348.9110     321.1780     2.0562       38.7733      
8936.0000    52.4333      13.1933      1.3146       132.3780     353.0890     322.0670     2.0609       38.2533      
8936.5000    54.4000      13.1533      1.3026       133.2000     353.4890     322.4000     2.0622       38.0267      
8937.0000    53.3333      13.2844      1.2906       133.0220     349.0000     332.9330     2.0556       37.5467      
8937.5000    51.9667      13.3644      1.2788       134.5330     349.4000     328.4670     2.0491       35.4000      
8938.0000    47.4000      13.4267      1.2697       134.5330     352.5780     325.0000     2.0482       33.7600      
8938.5000    47.9333      13.5222      1.2801       133.0000     357.5780     329.1330     2.0480       34.1867      
8939.0000    48.0667      13.6178      1.2920       130.9330     359.9110     323.7330     2.0480       37.1200      
8939.5000    48.9000      13.6622      1.2933       130.0000     360.9560     321.2670     2.0431       36.7600      
8940.0000    46.8000      13.6800      1.2906       130.2440     355.5110     327.1330     2.0391       37.5867      
8940.5000    46.2000      13.8400      1.2671       130.2670     346.9110     321.4440     2.0360       38.1200      
8941.0000    46.9000      13.6533      1.2658       130.4670     339.8890     318.4440     2.0380       39.1200      
8941.5000    48.2333      13.2178      1.2723       130.5560     327.7560     331.4000     2.0360       38.5200      
8942.0000    49.3000      13.1533      1.2762       131.6220     323.0670     327.2220     2.0396       39.4000      
8942.5000    48.4667      13.1778      1.3080       132.2000     323.8440     317.7330     2.0447       37.4000      
8943.0000    45.4667      13.1578      1.4038       131.5780     322.6000     318.3560     2.0507       36.7600      
8943.5000    42.7333      12.8978      1.5759       130.4440     280.5330     319.4670     2.0449       37.8667      
8944.0000    42.3333      12.7400      1.6432       129.5110     288.4000     317.8000     2.0331       41.3600      
8944.5000    45.1333      12.2533      1.5251       128.1780     283.8670     312.4000     2.0284       44.6800      
8945.0000    46.3333      12.2933      1.3379       126.4000     289.6670     310.4000     2.0393       43.8000      
8945.5000    49.0000      12.3778      1.2814       126.8000     299.4670     315.8670     2.0556       43.7200      
8946.0000    48.8000      12.4200      1.3013       127.8440     317.6670     311.8220     2.0693       41.6000      
8946.5000    49.1000      12.5200      1.3377       127.9780     327.2670     302.7330     2.0651       38.5867      
8947.0000    47.7000      12.6644      1.3724       128.4000     329.5330     308.6000     2.0604       35.8133      
8947.5000    48.5667      12.8133      1.3752       127.6890     318.7110     302.9330     2.0580       34.6400      
8948.0000    51.0333      12.7556      1.3794       126.8220     317.4670     303.5330     2.0609       34.9867      
8948.5000    52.8000      12.6933      1.3487       125.9110     317.2890     288.8220     2.0649       35.6667      
8949.0000    52.0667      12.7667      1.3459       125.2670     313.3560     286.1330     2.0682       39.1200      
8949.5000    51.3667      12.9400      1.3640       124.7110     311.2670     288.4890     2.0711       41.2000      
8950.0000    51.0000      13.0578      1.3979       124.5330     314.6220     289.0000     2.0709       41.5733      
8950.5000    51.8000      13.0867      1.4166       124.6890     314.6000     286.5330     2.0629       40.4933      
8951.0000    51.8000      13.0689      1.4123       125.7110     309.5110     289.4000     2.0529       38.2400      
8951.5000    49.2000      13.0600      1.3446       125.8000     307.1560     282.8000     2.0533       40.4800      
8952.0000    48.9667      13.0533      1.3133       125.9110     290.1780     285.1560     2.0744       43.1067      
8952.5000    47.3000      12.7311      1.3309       124.7330     281.8000     275.9780     2.0913       45.6667      
8953.0000    48.3000      12.6467      1.3865       125.4670     283.6890     263.3330     2.0938       42.8133      
8953.5000    48.0667      12.6800      1.3893       124.6220     284.6220     271.3330     2.0802       38.3200      
8954.0000    50.4000      12.7600      1.3794       124.4000     287.2000     270.1330     2.0709       38.9067      
8954.5000    49.9000      12.7889      1.3766       124.7330     284.7330     267.8670     2.0687       42.3200      
8955.0000    50.1000      12.8800      1.3626       123.7560     290.3110     272.4000     2.0722       42.0800      
8955.5000    50.1667      13.0467      1.3626       123.4000     293.6670     269.7110     2.0756       40.1733      
8956.0000    51.7000      12.9600      1.3696       123.5110     286.1330     267.0220     2.0760       38.4400      
8956.5000    50.9000      12.7867      1.3780       121.6000     270.9110     257.4890     2.0760       39.0267      
8957.0000    49.5667      12.8356      1.3865       122.0440     269.2220     255.7110     2.0800       39.2400      
8957.5000    47.9000      12.8400      1.3879       122.0440     276.4670     268.0000     2.0909       39.0133      
8958.0000    49.1000      12.8644      1.3950       122.6220     266.0670     264.1560     2.0976       38.3467      
8958.5000    48.4000      12.8867      1.3965       120.6000     252.9330     260.9780     2.0969       37.9600      
8959.0000    49.3000      12.6556      1.4123       119.8220     262.0000     247.2670     2.0909       37.7067      
8959.5000    48.2000      12.6200      1.4297       118.6220     260.0670     250.5110     2.0847       37.6400      
8960.0000    47.8667      12.6311      1.4283       122.7330     257.5330     243.4220     2.0900       38.3467      
8960.5000    49.3000      12.6444      1.3950       122.4000     261.9780     256.2670     2.0964       35.6000      
8961.0000    51.7000      12.6800      1.3556       122.5330     269.0440     275.1780     2.1071       34.6267      
8961.5000    54.3333      12.6333      1.2880       122.6220     276.5110     287.0000     2.1120       36.7733      
8962.0000    56.4000      12.6933      1.2736       123.3560     279.6220     310.5330     2.1224       41.1733      
8962.5000    61.1000      12.6467      1.2762       123.5110     284.5110     303.2000     2.1267       43.4000      
8963.0000    61.7333      12.7044      1.2920       126.2890     288.7110     303.7330     2.1320       42.8000      
8963.5000    63.1667      12.7822      1.2999       132.0670     291.6220     295.5780     2.1224       42.9867      
8964.0000    63.3000      12.9133      1.3214       131.1110     293.2440     282.4670     2.0956       45.6933      
8964.5000    63.9667      13.1867      1.2789       134.6000     300.7330     297.5330     2.0529       51.1200      
