~Version Section
VERS.   2.0:  CWLS Log ASCII Standard - Version 2.0
WRAP.    NO:  One data record per depth sample.
~Well Information Section
# 
# All depths are in TVD_SS.
# Log are manufactured using approximations to the nearest value.
# This file should not be used to load logs back into Finder 
# since depths are not MD.
# 
#MNEM.UNIT      VALUE                    DESCRIPTION
#---------      ----------               -----------
STRT.F        5225.0000                  :START DEPTH
STOP.F        13463.5000                 :STOP DEPTH
STEP.F                  .5               :STEP
NULL.          -999.250000               :NULL VALUE
COMP.                                    :Oil Company
WELL.              214/4-1               :Non unique well name
FLD.                                     :Field name
LOC.  -2.233878, 61.964789             :Location
PROV.                                    :Province
SRVC.                                    :Service
DATE.           2001-12-10               :Date unloaded
UWI.              20806940               :Unique well id
~Curve Information Section
#MNEM.UNIT                   API CODE                 Curve Description
#---------                   ----------               -----------------
VERTICAL-DEPTH-SS.F                                   :DEPTH (TVD_SS)
GR.GAPI                                   :Service = CMP1
HCAL.IN                                   :Service = CMP1
HLLD.OHMM                                   :Service = CMP1
DTCO.US/F                                   :Service = CMP2
DTSM.US/F                                   :Service = CMP2
DT1.US/F                                   :Service = CMP2
RHOZ.G/C3                                   :Service = CMP2
NPHI.                                   :Service = CMP2
~A
# ...
13385.0000   44.6667      8.8489       5.7740       79.4222      147.6670     195.8000     2.5613       36.6400      
13385.5000   43.3333      8.8333       5.9176       79.1555      143.5780     138.9330     2.5580       35.9600      
13386.0000   43.0000      8.8511       6.0585       78.9556      143.0000     138.9330     2.5496       36.4400      
13386.5000   43.3000      8.9422       6.0152       78.6222      154.4000     231.5330     2.5478       35.6000      
13387.0000   43.7333      8.9578       6.2284       79.2000      143.6670     231.5330     2.5551       34.2000      
13387.5000   44.3333      8.9644       6.8160       79.3333      142.1780     231.5330     2.5600       34.4267      
13388.0000   44.7667      8.9711       7.5735       79.1333      143.8670     264.7330     2.5513       35.3600      
13388.5000   45.1000      8.8733       8.0196       79.3111      141.0000     315.0670     2.5367       35.5333      
13389.0000   45.5000      8.9956       8.3118       79.0667      144.9330     436.4000     2.5480       34.8400      
13389.5000   46.1000      8.9644       8.0113       79.5556      142.9780     435.6440     2.5504       35.2400      
13390.0000   47.1000      8.9511       7.9785       79.8889      147.9560     422.2890     2.5387       35.3733      
13390.5000   -999.2500    9.0022       7.4880       80.2889      142.2220     369.8890     2.5280       35.1467      
13391.0000   -999.2500    9.0244       7.5187       80.4444      138.4000     325.2670     2.5420       36.0400      
13391.5000   -999.2500    9.0444       7.2393       80.9556      142.7330     305.2000     2.5596       36.1867      
13392.0000   -999.2500    9.1200       7.5033       80.3333      143.6000     305.2000     2.5931       36.4800      
13392.5000   -999.2500    9.0911       7.6272       80.2000      152.8670     356.2670     2.6049       36.7200      
13393.0000   -999.2500    9.0822       7.5418       80.2667      141.7330     434.8670     2.6120       37.3200      
13393.5000   -999.2500    9.0622       7.5341       80.2667      142.6000     461.4000     2.6091       37.2533      
13394.0000   -999.2500    9.0467       7.6194       80.1555      144.1110     461.4000     2.6044       36.2933      
13394.5000   -999.2500    9.0467       7.7769       79.6444      144.6890     461.4000     2.5998       35.9733      
13395.0000   -999.2500    9.0467       8.0523       79.7333      141.2000     276.8890     2.5973       34.7467      
13395.5000   -999.2500    9.0422       8.0853       79.2667      141.8670     276.5330     2.5956       34.4800      
13396.0000   -999.2500    9.0400       8.0688       79.4000      140.7560     276.5330     2.5924       35.0533      
13396.5000   -999.2500    9.0400       7.9135       79.4000      140.6670     326.5780     2.5873       35.6267      
13397.0000   -999.2500    9.0289       7.6272       79.8222      140.0890     351.6000     2.5796       35.7333      
13397.5000   -999.2500    9.0022       7.6038       79.9778      139.8670     351.6000     2.5676       35.3867      
13398.0000   -999.2500    9.0000       7.7610       80.6667      141.5330     351.6000     2.5493       35.4267      
13398.5000   -999.2500    8.9956       7.7451       80.4222      141.9110     463.1560     2.5511       34.7867      
13399.0000   -999.2500    8.9889       7.7451       80.4444      143.5330     522.4890     2.5531       34.7467      
13399.5000   -999.2500    8.9867       7.7849       80.9556      142.7110     526.5560     2.5533       34.9333      
13400.0000   -999.2500    8.9911       7.9459       81.0000      141.8670     530.1780     2.5480       34.9333      
13400.5000   -999.2500    8.9889       8.0358       80.5111      142.4000     491.4220     2.5431       -999.2500    
13401.0000   -999.2500    8.9800       7.9703       80.0444      140.4670     423.5330     2.5393       -999.2500    
13401.5000   -999.2500    8.9756       7.9540       80.0000      141.0220     423.9780     2.5398       -999.2500    
13402.0000   -999.2500    8.9689       8.1435       80.0000      139.3330     429.0440     2.5413       -999.2500    
13402.5000   -999.2500    8.9667       8.2020       79.8889      139.8890     434.0670     2.5389       -999.2500    
13403.0000   -999.2500    8.9622       8.2356       79.5556      140.7330     434.4670     2.5358       -999.2500    
13403.5000   -999.2500    8.9600       8.1019       77.8889      140.8670     411.8890     2.5344       -999.2500    
13404.0000   -999.2500    8.9555       8.2694       78.2667      140.5110     255.8000     2.5371       -999.2500    
13404.5000   -999.2500    8.9489       8.3374       78.0889      140.3560     263.9330     2.5398       -999.2500    
13405.0000   -999.2500    8.9467       8.2020       77.9111      138.5110     264.1330     2.5413       -999.2500    
13405.5000   -999.2500    8.9422       8.0276       78.9556      140.4000     257.4670     2.5409       -999.2500    
13406.0000   -999.2500    8.9400       7.9866       79.4222      140.1560     250.8000     2.5378       -999.2500    
13406.5000   -999.2500    8.9400       8.3630       77.7333      138.0670     288.9330     2.5347       -999.2500    
13407.0000   -999.2500    8.9355       8.2948       78.3555      139.1330     357.4890     2.5371       -999.2500    
13407.5000   -999.2500    8.9333       8.2188       80.0667      138.8670     378.8000     2.5373       -999.2500    
13408.0000   -999.2500    8.9333       8.0605       79.8889      137.7110     378.8000     2.5373       -999.2500    
13408.5000   -999.2500    8.9333       8.1852       79.5778      174.4000     301.6000     2.5378       -999.2500    
13409.0000   -999.2500    8.9333       8.1185       79.3555      144.7780     301.7780     2.5409       -999.2500    
13409.5000   -999.2500    8.9333       8.0523       79.1333      141.1780     301.9330     2.5420       -999.2500    
13410.0000   -999.2500    -999.2500    8.0853       79.6222      138.8000     301.9330     2.5420       -999.2500    
13410.5000   -999.2500    -999.2500    8.0112       80.1333      138.9330     301.9330     -999.2500    -999.2500    
13411.0000   -999.2500    -999.2500    8.1602       80.9333      140.0890     194.8670     -999.2500    -999.2500    
13411.5000   -999.2500    -999.2500    8.4407       80.2444      139.6890     141.3330     -999.2500    -999.2500    
13412.0000   -999.2500    -999.2500    9.3403       80.1555      138.1780     145.5110     -999.2500    -999.2500    
13412.5000   -999.2500    -999.2500    8.7039       79.7111      140.4000     197.4000     -999.2500    -999.2500    
13413.0000   -999.2500    -999.2500    7.4589       77.6222      141.0670     150.9560     -999.2500    -999.2500    
13413.5000   -999.2500    -999.2500    7.1293       76.4222      142.9110     127.7330     -999.2500    -999.2500    
13414.0000   -999.2500    -999.2500    6.5217       76.5111      140.5330     127.7330     -999.2500    -999.2500    
13414.5000   -999.2500    -999.2500    6.7045       78.7333      143.8440     127.7330     -999.2500    -999.2500    
13415.0000   -999.2500    -999.2500    6.7527       78.3111      138.4000     150.1780     -999.2500    -999.2500    
13415.5000   -999.2500    -999.2500    7.3363       76.9333      138.8670     161.4000     -999.2500    -999.2500    
13416.0000   -999.2500    -999.2500    7.4421       78.6667      139.0000     161.4000     -999.2500    -999.2500    
13416.5000   -999.2500    -999.2500    7.1290       78.1555      136.9330     161.4000     -999.2500    -999.2500    
13417.0000   -999.2500    -999.2500    7.1729       76.9111      138.4000     143.7560     -999.2500    -999.2500    
13417.5000   -999.2500    -999.2500    7.0709       76.4889      137.7780     134.9330     -999.2500    -999.2500    
13418.0000   -999.2500    -999.2500    7.0637       76.5778      139.5330     136.4000     -999.2500    -999.2500    
13418.5000   -999.2500    -999.2500    7.0999       77.3333      137.8670     138.5560     -999.2500    -999.2500    
