~Version Section
VERS.   2.0:  CWLS Log ASCII Standard - Version 2.0
WRAP.    NO:  One data record per depth sample.
~Well Information Section
# 
# All depths are in TVD_SS.
# Log are manufactured using approximations to the nearest value.
# This file should not be used to load logs back into Finder 
# since depths are not MD.
# 
#MNEM.UNIT      VALUE                    DESCRIPTION
#---------      ----------               -----------
STRT.F        5225.0000                  :START DEPTH
STOP.F        13463.5000                 :STOP DEPTH
STEP.F                  .5               :STEP
NULL.          -999.250000               :NULL VALUE
COMP.                                    :Oil Company
WELL.              214/4-1               :Non unique well name
FLD.                                     :Field name
LOC.  -2.233878, 61.964789             :Location
PROV.                                    :Province
SRVC.                                    :Service
DATE.           2001-12-10               :Date unloaded
UWI.              20806940               :Unique well id
~Curve Information Section
#MNEM.UNIT                   API CODE                 Curve Description
#---------                   ----------               -----------------
VERTICAL-DEPTH-SS.F                                   :DEPTH (TVD_SS)
GR.GAPI                                   :Service = CMP1
HCAL.IN                                   :Service = CMP1
HLLD.OHMM                                   :Service = CMP1
DTCO.US/F                                   :Service = CMP2
DTSM.US/F                                   :Service = CMP2
DT1.US/F                                   :Service = CMP2
RHOZ.G/C3                                   :Service = CMP2
NPHI.                                   :Service = CMP2
~A
# ...
11515.0000   55.9667      13.0933      4.1574       98.2000      211.8220     309.5330     2.3996       34.4133      
11515.5000   53.1000      13.2267      4.8323       99.5556      214.8670     326.7780     2.4420       34.1467      
11516.0000   55.3333      13.3600      4.9880       101.5780     213.5560     340.2000     2.4280       36.1600      
11516.5000   57.5000      13.3022      5.2125       103.3330     208.4890     357.4440     2.4071       37.6400      
11517.0000   58.4333      13.2200      5.4860       102.4670     204.9110     373.9560     2.3844       38.6800      
11517.5000   59.0667      13.0133      5.5538       103.1330     203.7110     398.2440     2.3649       37.1333      
11518.0000   59.0667      12.9844      5.2445       100.9110     209.4670     527.4000     2.3882       34.5600      
11518.5000   59.8000      12.9933      5.2346       100.7110     204.5560     616.5110     2.4236       35.6533      
11519.0000   59.5667      13.0200      3.5897       100.0000     202.2890     619.0000     2.4302       37.2133      
11519.5000   60.6333      13.1400      2.8800       97.8667      196.4890     613.6219     2.4160       39.0000      
11520.0000   62.3667      13.2467      2.7694       96.8667      190.3330     551.3550     2.3887       37.9467      
11520.5000   62.1333      13.1400      3.4348       97.0222      191.4000     534.7329     2.3720       36.4667      
11521.0000   54.9333      12.8756      4.0815       96.4222      202.8670     533.0220     2.3900       34.8000      
11521.5000   52.5000      12.8733      4.1743       99.2667      201.6440     473.2890     2.4089       34.9067      
11522.0000   55.0333      12.8533      4.1958       98.2889      195.6000     468.9110     2.4160       34.0800      
11522.5000   56.3333      12.9489      4.4845       98.1778      195.8220     445.0890     2.4158       34.2267      
11523.0000   58.7667      13.0400      4.6528       98.6444      192.6670     432.6440     2.4042       34.4000      
11523.5000   62.5667      12.9711      4.6383       94.8889      191.8670     434.4670     2.3947       33.5467      
11524.0000   60.3333      12.8667      4.6669       94.8444      182.0670     434.0890     2.4056       34.5867      
11524.5000   55.5333      12.9600      4.7150       95.4000      193.4000     435.3110     2.4296       37.2000      
11525.0000   51.1000      12.8867      5.3263       95.9333      192.9110     419.3330     2.4433       39.0400      
11525.5000   51.7000      12.8489      5.5424       95.6000      194.8670     361.7330     2.4387       38.1733      
11526.0000   58.4000      13.0356      5.0502       98.5556      195.6220     377.1560     2.3958       40.1067      
11526.5000   58.8333      13.1467      4.6241       98.6667      195.2220     384.4220     2.3860       42.7200      
11527.0000   57.1000      13.0978      4.6861       99.2000      194.5330     403.0670     2.3909       40.5333      
11527.5000   56.1000      13.0400      4.8421       98.8000      193.4440     385.4220     2.3947       38.8000      
11528.0000   56.6333      12.9556      4.6241       97.8222      201.9560     383.3110     2.4031       37.9467      
11528.5000   58.2667      13.0044      4.9625       98.3778      195.2000     449.4440     2.4033       37.1467      
11529.0000   59.2000      13.0778      4.8471       98.4444      203.2000     451.6670     2.3887       37.6800      
11529.5000   59.7000      13.1533      4.5537       99.0667      205.9560     448.4220     2.3913       37.3733      
11530.0000   58.0333      13.1556      4.7783       99.4000      201.0440     538.5330     2.4056       36.4267      
11530.5000   56.0000      13.0956      5.1701       98.6667      200.8670     533.9110     2.4213       35.5200      
11531.0000   56.2333      12.9644      5.3749       98.2000      204.0000     532.8889     2.4224       35.2267      
11531.5000   52.1333      13.0133      4.9532       96.5333      204.2440     537.0670     2.3853       34.9333      
11532.0000   50.2000      13.0689      4.2138       98.6667      203.3780     535.8440     2.3613       38.2400      
11532.5000   51.2333      13.1156      4.0939       100.4440     201.2670     524.3330     2.3667       41.3867      
11533.0000   53.5333      13.1556      4.5589       100.6670     202.0890     476.9330     2.3753       42.7200      
11533.5000   56.1000      13.1711      4.7830       100.4890     203.1330     472.2000     2.3760       41.7200      
11534.0000   60.1000      12.9844      4.5817       96.0000      198.0440     514.6000     2.4069       36.5333      
11534.5000   58.3333      12.8533      4.7882       95.1778      197.3560     469.5780     2.4300       34.8400      
11535.0000   56.3000      12.8933      5.4756       94.9111      199.6440     377.7330     2.4580       35.1200      
11535.5000   55.3000      12.8556      5.5651       96.2444      200.2670     383.8000     2.4513       35.4000      
11536.0000   56.2000      13.1089      5.8335       97.1111      197.4670     389.6220     2.4531       34.3867      
11536.5000   64.5333      13.3978      6.0399       99.9556      201.3330     462.2220     2.4109       35.2133      
11537.0000   68.5667      13.2578      5.7157       99.4667      198.9560     518.0000     2.3818       35.9600      
11537.5000   69.5000      13.1000      5.0604       99.5778      195.8670     521.8440     2.3604       37.0000      
11538.0000   70.5000      12.9111      5.0186       96.0222      205.4670     479.8670     2.3533       36.1600      
11538.5000   70.1333      12.8267      5.2071       92.3333      195.9560     494.5560     2.3591       36.8000      
11539.0000   68.6667      13.0800      5.3256       92.0889      200.6670     513.5330     2.4382       33.6933      
11539.5000   67.4667      13.2333      4.7884       92.0667      198.0670     575.6670     2.4809       33.2000      
11540.0000   64.6667      13.2733      4.6526       99.3111      200.2670     609.4669     2.4889       35.3467      
11540.5000   64.2000      13.2022      4.7635       102.1330     203.9330     609.6670     2.4693       37.1600      
11541.0000   64.6333      13.1067      5.0547       104.1110     199.6000     552.5560     2.4416       37.8267      
11541.5000   65.5000      12.9578      4.8027       106.0000     206.3330     521.9559     2.4058       38.1200      
11542.0000   64.5333      13.0044      4.6383       107.0220     198.0670     461.3560     2.3531       40.6800      
11542.5000   59.6667      13.1400      4.9375       105.9110     205.4670     383.6670     2.3536       40.9867      
11543.0000   58.3333      13.4578      5.3588       105.0670     202.7560     400.8220     2.3751       40.7467      
11543.5000   56.6667      13.5733      5.8036       104.6000     201.7330     421.2220     2.3860       38.3333      
11544.0000   55.2667      13.4156      5.2665       105.2890     205.6670     480.2000     2.3780       36.8533      
11544.5000   50.2000      12.9556      5.0599       104.6670     207.4220     497.2220     2.3598       37.6533      
11545.0000   52.9667      12.9400      4.9270       104.4890     208.2670     443.9560     2.3767       39.7333      
11545.5000   55.8667      12.9889      4.9069       104.0670     209.3560     406.9330     2.3944       40.1733      
11546.0000   59.1000      13.1644      4.8569       105.0440     209.4000     386.4670     2.3947       38.8800      
11546.5000   57.8333      13.4467      5.0858       105.3780     205.9330     410.4890     2.3816       37.4667      
11547.0000   55.0000      13.4556      5.1540       104.0220     204.1560     576.3779     2.3667       38.6800      
11547.5000   53.4333      13.2467      5.1857       102.8890     205.7330     562.7999     2.3849       37.0800      
11548.0000   53.1667      13.2733      5.5596       101.1780     204.8890     563.1110     2.4096       37.4800      
11548.5000   54.1000      13.2200      5.6109       100.1780     202.5330     546.5560     2.4256       36.4000      
