~Version Section
VERS.   2.0:  CWLS Log ASCII Standard - Version 2.0
WRAP.    NO:  One data record per depth sample.
~Well Information Section
# 
# All depths are in TVD_SS.
# Log are manufactured using approximations to the nearest value.
# This file should not be used to load logs back into Finder 
# since depths are not MD.
# 
#MNEM.UNIT      VALUE                    DESCRIPTION
#---------      ----------               -----------
STRT.F        5225.0000                  :START DEPTH
STOP.F        13463.5000                 :STOP DEPTH
STEP.F                  .5               :STEP
NULL.          -999.250000               :NULL VALUE
COMP.                                    :Oil Company
WELL.              214/4-1               :Non unique well name
FLD.                                     :Field name
LOC.  -2.233878, 61.964789             :Location
PROV.                                    :Province
SRVC.                                    :Service
DATE.           2001-12-10               :Date unloaded
UWI.              20806940               :Unique well id
~Curve Information Section
#MNEM.UNIT                   API CODE                 Curve Description
#---------                   ----------               -----------------
VERTICAL-DEPTH-SS.F                                   :DEPTH (TVD_SS)
GR.GAPI                                   :Service = CMP1
HCAL.IN                                   :Service = CMP1
HLLD.OHMM                                   :Service = CMP1
DTCO.US/F                                   :Service = CMP2
DTSM.US/F                                   :Service = CMP2
DT1.US/F                                   :Service = CMP2
RHOZ.G/C3                                   :Service = CMP2
NPHI.                                   :Service = CMP2
~A
# ...
11141.0000   99.4667      13.7133      1.9575       124.8890     272.1110     504.1330     2.3571       39.4533      
11141.5000   98.4667      13.7733      2.0062       123.1780     271.4220     524.3779     2.3653       41.2000      
11142.0000   95.4667      13.7178      2.0943       122.4670     267.7560     546.1110     2.3680       42.8000      
11142.5000   80.0667      13.7133      2.3972       120.5780     259.8670     511.0890     2.3833       39.9333      
11143.0000   77.8333      13.7467      2.3558       119.7330     264.1560     426.4440     2.4040       39.1333      
11143.5000   86.0000      13.6800      2.1266       120.0000     275.6670     433.0670     2.4153       36.8133      
11144.0000   84.2000      13.7133      2.1885       117.7780     279.9330     449.0000     2.4064       33.7200      
11144.5000   84.6000      13.7733      2.3606       116.5110     283.7110     543.9330     2.4007       30.2000      
11145.0000   83.4333      13.7667      2.3058       121.6000     287.4440     591.4000     2.4082       30.8267      
11145.5000   80.9667      13.6156      1.9061       128.9330     219.2670     521.6219     2.4124       39.1733      
11146.0000   80.3667      13.7533      1.8694       126.9330     221.3330     490.1330     2.3871       39.7600      
11146.5000   82.3000      13.7778      1.8073       124.7110     222.7330     531.9780     2.3587       39.0000      
11147.0000   83.2667      13.7800      1.8092       124.4000     234.5780     543.6000     2.3467       39.5600      
11147.5000   85.3000      13.7889      1.9081       124.6220     254.2000     487.4670     2.3607       39.6267      
11148.0000   79.2000      13.8933      2.1862       125.8890     258.1780     396.7780     2.4107       38.7733      
11148.5000   79.4667      13.8356      2.1332       126.1330     273.9330     395.4670     2.4044       36.6400      
11149.0000   79.4333      13.7333      2.1136       125.8670     284.0000     397.7780     2.3902       40.7333      
11149.5000   79.4333      13.7289      2.1050       126.6440     287.6890     408.8440     2.3784       42.7200      
11150.0000   81.2667      13.6800      2.0414       127.0670     289.6000     379.9560     2.3749       41.8133      
11150.5000   83.2667      13.7533      1.9101       126.6670     289.2220     369.6000     2.3704       40.3733      
11151.0000   84.5333      13.7533      1.8944       124.3330     287.2000     363.4670     2.3471       38.6267      
11151.5000   83.4333      13.7422      1.9635       124.2890     288.3110     357.5110     2.3482       38.2000      
11152.0000   82.5000      13.8400      1.9959       122.0440     271.2220     400.5780     2.3596       39.0800      
11152.5000   82.4000      13.7089      2.0540       120.5330     246.5330     426.6000     2.3851       40.1467      
11153.0000   82.6000      13.6000      2.1093       121.1560     248.1780     451.8670     2.4053       40.5200      
11153.5000   85.6000      13.5467      2.1684       121.8670     258.4670     437.0220     2.4096       39.7467      
11154.0000   87.1333      13.6622      2.2200       121.4670     266.7780     438.4670     2.3911       40.6000      
11154.5000   88.7667      13.6822      2.1862       121.8890     284.6670     426.6000     2.3678       40.2400      
11155.0000   88.9000      13.7444      2.0751       124.0000     297.8220     390.2440     2.3551       38.9200      
11155.5000   89.6333      13.8644      2.0082       124.4440     269.8000     339.8000     2.3513       39.2933      
11156.0000   89.7333      13.8689      1.9100       124.6000     261.8670     287.6000     2.3596       39.2267      
11156.5000   85.4667      13.8067      2.0083       120.9330     250.7780     290.6000     2.4009       37.2533      
11157.0000   76.5000      13.8111      2.1266       118.8000     246.2220     266.4670     2.4331       34.6800      
11157.5000   74.7000      13.8311      2.0497       117.4890     236.3560     264.4440     2.4567       32.6533      
11158.0000   74.1667      13.8489      2.1355       116.5780     238.9780     268.4890     2.4424       32.2000      
11158.5000   73.6000      13.7867      2.4197       118.9110     252.1780     296.7560     2.4047       32.9200      
11159.0000   80.0000      13.8444      2.3534       120.6670     273.7110     376.1330     2.3371       35.1200      
11159.5000   78.9333      13.8956      2.4243       121.2220     286.1330     359.4000     2.3360       35.1200      
11160.0000   75.5667      13.9400      2.5282       121.7560     280.8890     384.0670     2.3558       35.1333      
11160.5000   73.5000      13.9822      2.6855       122.2890     274.8670     380.0890     2.3707       36.9867      
11161.0000   74.2667      13.6467      2.4873       122.9110     282.3110     379.0670     2.3773       37.4533      
11161.5000   78.7000      13.7444      2.2848       123.6440     288.2440     414.7560     2.3727       37.5600      
11162.0000   84.4000      13.7867      2.1007       127.2000     291.9330     438.4000     2.3542       39.8533      
11162.5000   84.4667      13.8044      2.1115       125.3110     299.0000     433.0220     2.3456       39.9867      
11163.0000   82.1333      13.8489      2.1180       123.5110     305.0890     440.3560     2.3447       40.3867      
11163.5000   81.4333      13.8489      2.1201       122.4220     278.2000     444.2670     2.3504       42.3600      
11164.0000   76.2000      13.7933      2.1245       117.9560     279.6220     447.2000     2.3658       41.9867      
11164.5000   65.5667      13.7200      2.5788       109.2670     213.0440     481.7110     2.4391       35.0000      
11165.0000   63.5000      13.5267      3.1356       111.6440     211.5330     457.1330     2.4593       35.4800      
11165.5000   64.1333      13.6133      3.6282       114.2220     229.7330     457.3780     2.4398       36.6667      
11166.0000   67.4667      13.4600      3.3127       115.4670     229.4000     432.4670     2.3958       37.9600      
11166.5000   72.3000      13.5556      3.0462       117.2890     237.8000     392.5560     2.3733       38.4000      
11167.0000   71.6000      13.6200      2.6127       119.9780     244.7110     389.5560     2.3769       37.6400      
11167.5000   75.0333      13.5267      2.6609       122.4670     255.4000     347.6440     2.3693       38.3467      
11168.0000   80.6333      13.6533      2.6664       122.1110     249.7330     318.4220     2.3620       38.9467      
11168.5000   83.8000      13.6333      2.3658       122.0670     259.6220     274.0440     2.3660       40.0800      
11169.0000   82.8333      13.6533      2.3105       122.0670     271.4000     271.2000     2.3740       39.7600      
11169.5000   81.7000      13.6044      2.1952       122.2670     270.0220     325.5110     2.3738       40.2800      
11170.0000   83.6000      13.5956      2.1907       121.8670     266.1330     373.1560     2.3656       39.2400      
11170.5000   75.7333      13.5711      2.4045       121.7110     289.3330     388.6670     2.3567       39.6667      
11171.0000   74.0000      13.5733      2.3898       121.5560     289.5110     384.5330     2.3584       39.1600      
11171.5000   76.3667      13.5756      2.4144       121.4890     295.8000     365.3330     2.3629       39.5600      
11172.0000   77.3000      13.4867      2.4795       121.2220     282.6670     258.7330     2.3644       38.6267      
11172.5000   77.8667      13.4889      2.5024       120.9560     283.9780     262.1560     2.3642       36.8400      
11173.0000   70.8667      13.6244      2.4999       120.9780     281.2000     246.6000     2.3618       36.4000      
11173.5000   68.7000      13.6244      2.5647       121.3110     283.9110     242.2220     2.3649       35.9600      
11174.0000   69.8000      13.6933      2.6070       119.0890     273.4000     240.9110     2.3707       35.8267      
11174.5000   72.8000      13.6400      2.6365       116.3110     264.7780     229.7330     2.3816       35.2400      
