~Version Section
VERS.   2.0:  CWLS Log ASCII Standard - Version 2.0
WRAP.    NO:  One data record per depth sample.
~Well Information Section
# 
# All depths are in TVD_SS.
# Log are manufactured using approximations to the nearest value.
# This file should not be used to load logs back into Finder 
# since depths are not MD.
# 
#MNEM.UNIT      VALUE                    DESCRIPTION
#---------      ----------               -----------
STRT.F        5225.0000                  :START DEPTH
STOP.F        13463.5000                 :STOP DEPTH
STEP.F                  .5               :STEP
NULL.          -999.250000               :NULL VALUE
COMP.                                    :Oil Company
WELL.              214/4-1               :Non unique well name
FLD.                                     :Field name
LOC.  -2.233878, 61.964789             :Location
PROV.                                    :Province
SRVC.                                    :Service
DATE.           2001-12-10               :Date unloaded
UWI.              20806940               :Unique well id
~Curve Information Section
#MNEM.UNIT                   API CODE                 Curve Description
#---------                   ----------               -----------------
VERTICAL-DEPTH-SS.F                                   :DEPTH (TVD_SS)
GR.GAPI                                   :Service = CMP1
HCAL.IN                                   :Service = CMP1
HLLD.OHMM                                   :Service = CMP1
DTCO.US/F                                   :Service = CMP2
DTSM.US/F                                   :Service = CMP2
DT1.US/F                                   :Service = CMP2
RHOZ.G/C3                                   :Service = CMP2
NPHI.                                   :Service = CMP2
~A
# ...
9645.0000    51.2000      12.3600      1.3173       128.8670     304.0440     305.2670     2.0702       37.2400      
9645.5000    51.9333      12.4489      1.3066       129.4670     325.7330     303.1780     2.0662       37.3733      
9646.0000    52.0000      12.7733      1.2736       128.5330     320.6440     328.2000     2.0660       37.7600      
9646.5000    52.0000      12.9267      1.2491       129.5560     313.6670     306.2000     2.0667       37.4133      
9647.0000    52.2667      13.2133      1.2465       129.8890     296.0000     302.1330     2.0627       36.6267      
9647.5000    52.7333      13.4733      1.2465       130.6670     308.3330     297.1330     2.0556       35.5067      
9648.0000    50.7333      13.1600      1.2401       130.1330     303.2220     297.5780     2.0493       34.0800      
9648.5000    49.0333      13.8133      1.2225       129.6440     300.2670     300.9560     2.0476       35.3067      
9649.0000    48.5000      13.4444      1.2063       129.4220     301.9110     300.7560     2.0456       35.9867      
9649.5000    49.9000      13.1733      1.2051       128.9780     304.4440     293.4000     2.0447       37.4667      
9650.0000    51.9000      13.5244      1.2027       128.8670     309.5110     296.4220     2.0476       37.8933      
9650.5000    51.0000      13.6444      1.1977       128.9560     313.1330     299.8670     2.0533       37.9467      
9651.0000    50.1000      13.8978      1.2076       128.4000     310.2000     303.3330     2.0600       37.8800      
9651.5000    49.7333      14.0933      1.2088       127.8670     299.0440     278.4000     2.0656       35.8533      
9652.0000    49.7000      14.2400      1.2125       127.0670     294.9560     283.9330     2.0664       34.6400      
9652.5000    49.6333      14.1711      1.2063       126.9110     293.2440     275.8000     2.0671       35.0800      
9653.0000    49.3333      14.0533      1.1953       127.8000     305.0220     285.1330     2.0673       37.5333      
9653.5000    49.1667      14.1822      1.1904       129.6890     312.4890     284.3330     2.0722       40.5600      
9654.0000    50.7333      14.3556      1.1904       130.5330     317.5560     281.0220     2.0767       41.7867      
9654.5000    51.7000      14.4889      1.1928       129.9560     323.0000     278.0440     2.0709       41.9733      
9655.0000    52.2333      14.7133      1.2039       128.5560     316.2000     275.0000     2.0598       41.0667      
9655.5000    52.2667      14.4667      1.2150       126.9110     316.8000     269.0000     2.0540       39.3200      
9656.0000    48.2667      14.6556      1.2671       125.6890     300.8440     250.3330     2.0753       39.0400      
9656.5000    51.0667      14.7667      1.2697       126.7780     294.5560     261.2220     2.0800       38.3733      
9657.0000    57.1000      14.5533      1.2867       128.5560     286.8670     246.9560     2.0764       40.8933      
9657.5000    55.0000      14.6222      1.2959       129.4000     281.2670     274.9330     2.0707       43.5200      
9658.0000    55.3000      14.3578      1.3227       128.8890     272.5330     267.2220     2.0727       43.1467      
9658.5000    54.2000      13.5467      1.3405       125.6000     276.3330     255.6000     2.0673       39.9067      
9659.0000    55.3000      13.2267      1.3668       125.7330     267.8440     262.0220     2.0596       37.7600      
9659.5000    55.2667      13.5133      1.3515       123.3560     264.3330     284.7110     2.0500       39.1067      
9660.0000    53.4333      13.7400      1.3418       121.2000     251.8220     289.4890     2.0547       42.9333      
9660.5000    51.0333      13.8467      1.3598       123.1560     248.0220     292.4220     2.0607       44.8667      
9661.0000    49.7333      13.7489      1.3965       123.4670     257.8000     279.1560     2.0553       45.0533      
9661.5000    48.9000      13.6889      1.4123       124.8000     265.8890     248.7330     2.0582       42.6800      
9662.0000    50.9667      13.4067      1.4268       124.4000     286.0670     263.4000     2.0649       43.4533      
9662.5000    52.3333      13.3067      1.4268       125.7110     276.9780     252.6670     2.0864       45.5600      
9663.0000    54.1667      13.0489      1.4623       126.2670     249.2440     265.2000     2.1002       45.1600      
9663.5000    54.2333      12.4533      1.5033       124.8000     245.0000     259.0890     2.1220       43.4933      
9664.0000    54.0667      12.4911      1.5249       122.9560     248.0670     252.5560     2.1469       40.7200      
9664.5000    53.1333      12.2800      1.5343       120.1780     232.3330     240.5330     2.1593       38.7333      
9665.0000    51.3333      12.2533      1.5741       110.0670     231.6890     240.7780     2.1538       37.2267      
9665.5000    48.1667      12.2756      1.7898       110.3330     216.9330     232.7560     2.1564       37.0133      
9666.0000    47.3000      12.3733      2.5567       109.9110     221.2890     226.8440     2.1967       35.5067      
9666.5000    49.7000      12.2711      3.9057       111.8670     223.1560     234.2670     2.2564       34.2400      
9667.0000    54.9667      12.1933      2.8111       115.6890     236.0220     236.7110     2.2938       36.4133      
9667.5000    61.4333      12.2200      1.9286       122.8890     260.1330     243.4890     2.3000       40.7200      
9668.0000    72.0000      12.3289      1.3937       126.2000     298.8890     302.2000     2.2793       45.2400      
9668.5000    74.0667      12.3267      1.3133       127.1110     316.7330     289.8670     2.2673       45.0800      
9669.0000    74.4667      12.3467      1.2402       127.8670     316.8890     300.6670     2.2573       46.3067      
9669.5000    78.4000      12.2933      1.1498       126.7780     321.3330     289.3560     2.2384       47.8400      
9670.0000    77.9000      12.2889      1.0757       126.3110     315.6670     276.8670     2.2349       47.0267      
9670.5000    75.8667      12.4533      1.0615       127.7330     298.3330     281.4000     2.2144       46.2933      
9671.0000    70.2000      13.2267      1.1219       127.0890     299.7330     278.5330     2.2133       46.2400      
9671.5000    66.1000      12.8933      1.1844       126.3110     297.2440     272.9330     2.2100       45.0400      
9672.0000    68.3333      13.0000      1.2175       126.2440     288.8440     283.2890     2.2156       44.2667      
9672.5000    73.3000      12.7067      1.1117       125.0440     311.8220     308.4000     2.2138       44.9067      
9673.0000    76.4000      14.2933      1.0211       123.6440     330.1330     298.5780     2.1880       45.8267      
9673.5000    75.2333      13.1422      0.9573       128.7780     325.4670     285.8670     2.2069       45.2133      
9674.0000    74.2667      12.6933      1.0433       130.0440     336.3330     292.8670     2.2240       45.7600      
9674.5000    76.5000      12.7467      1.0724       130.2670     324.7560     302.0000     2.2093       51.9200      
9675.0000    76.8333      12.2156      1.0273       128.0670     299.4440     351.4000     2.1504       51.0533      
9675.5000    77.2000      12.1511      1.0725       127.8000     291.9330     341.6890     2.1253       45.8533      
9676.0000    70.4333      12.2644      1.2661       119.2890     292.4000     333.0670     2.1578       39.5067      
9676.5000    68.4000      11.8600      1.3613       118.1330     280.0670     303.2890     2.1962       36.1867      
9677.0000    66.8667      12.0556      1.5887       118.7110     287.9330     289.3560     2.2173       38.6800      
9677.5000    70.6333      12.2444      1.4535       120.0440     290.3330     287.5560     2.2156       42.8533      
9678.0000    72.1000      12.4644      1.2685       123.0890     305.2670     280.9330     2.2087       49.6800      
9678.5000    71.0333      12.9333      1.2414       124.7780     297.8000     255.0890     2.1858       48.6800      
