~Version Section
VERS.   2.0:  CWLS Log ASCII Standard - Version 2.0
WRAP.    NO:  One data record per depth sample.
~Well Information Section
# 
# All depths are in TVD_SS.
# Log are manufactured using approximations to the nearest value.
# This file should not be used to load logs back into Finder 
# since depths are not MD.
# 
#MNEM.UNIT      VALUE                    DESCRIPTION
#---------      ----------               -----------
STRT.F        5225.0000                  :START DEPTH
STOP.F        13463.5000                 :STOP DEPTH
STEP.F                  .5               :STEP
NULL.          -999.250000               :NULL VALUE
COMP.                                    :Oil Company
WELL.              214/4-1               :Non unique well name
FLD.                                     :Field name
LOC.  -2.233878, 61.964789             :Location
PROV.                                    :Province
SRVC.                                    :Service
DATE.           2001-12-10               :Date unloaded
UWI.              20806940               :Unique well id
~Curve Information Section
#MNEM.UNIT                   API CODE                 Curve Description
#---------                   ----------               -----------------
VERTICAL-DEPTH-SS.F                                   :DEPTH (TVD_SS)
GR.GAPI                                   :Service = CMP1
HCAL.IN                                   :Service = CMP1
HLLD.OHMM                                   :Service = CMP1
DTCO.US/F                                   :Service = CMP2
DTSM.US/F                                   :Service = CMP2
DT1.US/F                                   :Service = CMP2
RHOZ.G/C3                                   :Service = CMP2
NPHI.                                   :Service = CMP2
~A
# ...
11889.0000   93.9333      13.4400      3.8345       106.2000     207.4000     307.9330     2.3953       31.7333      
11889.5000   90.2000      13.4422      3.6957       102.9780     208.6000     323.3330     2.3787       32.9200      
11890.0000   79.2000      13.6467      3.8780       100.8890     202.2670     304.4220     2.3702       30.0400      
11890.5000   71.6333      13.4867      4.2176       100.4670     204.0670     284.0440     2.3682       30.8533      
11891.0000   64.6333      13.2667      4.4615       100.8670     201.3780     241.1560     2.3673       31.6800      
11891.5000   58.7000      13.3244      4.7297       99.5556      200.8890     183.9330     2.3836       30.9867      
11892.0000   58.2000      13.3689      5.2937       92.8667      200.8670     174.9330     2.3993       28.3467      
11892.5000   57.6333      13.3111      5.8633       94.8000      201.7330     175.2000     2.3891       25.2800      
11893.0000   51.6667      13.6200      5.4417       97.2444      208.6670     242.6220     2.3851       28.3467      
11893.5000   46.4667      13.6578      5.0292       99.4889      207.2000     381.9110     2.3778       31.6400      
11894.0000   44.7000      13.4689      5.0033       100.0000     206.5780     527.7329     2.3649       34.6400      
11894.5000   46.9000      13.2511      5.1224       101.2220     205.9110     524.7109     2.3487       34.9600      
11895.0000   50.2667      13.2133      5.0911       101.6220     204.2890     518.2670     2.3458       35.6400      
11895.5000   60.8667      13.3800      4.3534       101.5330     200.8220     447.4670     2.3716       36.2800      
11896.0000   67.1000      13.2711      4.2129       102.0000     191.6000     448.7780     2.3847       34.6267      
11896.5000   73.6000      13.2444      4.6440       100.9780     186.6000     458.0670     2.3949       31.9200      
11897.0000   75.6667      13.4933      5.4874       99.8667      187.6000     483.8220     2.4038       27.7067      
11897.5000   76.1000      13.2600      6.1024       94.8000      183.2670     503.0440     2.4051       23.8400      
11898.0000   82.1667      13.1156      5.7860       96.8667      187.6670     519.8669     2.3780       26.7067      
11898.5000   87.0000      13.2867      5.5654       97.3555      189.0000     512.7550     2.3816       31.7467      
11899.0000   93.5000      13.2333      4.9177       97.5556      190.1110     505.3560     2.4064       33.8800      
11899.5000   91.7667      13.3000      4.6813       98.0000      191.3560     503.8000     2.4269       30.1467      
11900.0000   87.9667      13.2933      5.0917       96.6889      184.3330     495.4440     2.4331       25.0933      
11900.5000   72.8333      13.3889      6.2797       94.0444      185.2220     443.0000     2.3644       26.0000      
11901.0000   67.9000      13.2067      6.4753       92.9111      196.2670     440.9330     2.3511       25.2800      
11901.5000   64.4667      13.4311      6.9347       95.4667      191.2670     436.7780     2.3831       23.3600      
11902.0000   64.5333      13.6844      6.7738       96.5333      191.6890     453.9330     2.4220       23.8133      
11902.5000   68.5333      13.7422      5.8469       95.6000      194.8670     451.0670     2.4264       25.8133      
11903.0000   84.2000      13.5622      4.7152       97.7778      190.3330     408.4440     2.3973       29.5600      
11903.5000   91.5000      13.5244      4.5958       98.4000      196.6000     376.6000     2.4136       31.2800      
11904.0000   95.9333      13.5089      4.6053       98.0444      192.9560     377.8890     2.4453       31.8133      
11904.5000   97.4667      13.4778      4.3755       97.6889      187.9330     347.6670     2.4669       30.3600      
11905.0000   98.1333      13.5867      4.5076       95.8667      188.1560     347.9110     2.4660       27.0267      
11905.5000   90.6000      13.8289      6.2488       96.0667      182.0670     348.2670     2.3973       23.8667      
11906.0000   80.4000      13.9133      6.5619       96.6889      190.5330     332.5330     2.3642       25.0267      
11906.5000   67.0333      13.9200      6.1087       98.4444      189.8440     353.2440     2.3338       25.8933      
11907.0000   59.0667      13.9289      5.6748       98.7333      189.8670     378.8000     2.3093       26.0800      
11907.5000   57.0000      13.8667      5.2662       99.9333      190.0000     349.1110     2.2913       25.7067      
11908.0000   62.2667      13.9556      5.3915       99.0889      188.2000     321.4220     2.3329       24.8400      
11908.5000   65.5333      13.9689      5.5824       97.8000      188.3330     318.9110     2.3613       25.6267      
11909.0000   69.0667      13.7133      6.1333       98.2889      188.1110     318.2440     2.3751       26.6000      
11909.5000   73.9000      13.8956      6.0896       96.6444      185.5330     378.2890     2.3907       27.8667      
11910.0000   72.4667      13.9422      6.2666       95.4667      189.7110     486.6670     2.4104       27.9067      
11910.5000   73.6000      13.9956      5.9729       95.8000      198.7330     576.9330     2.4267       26.7600      
11911.0000   77.4000      13.8600      5.0362       97.8667      201.3330     572.7329     2.4276       26.1600      
11911.5000   73.8000      13.6333      4.3008       98.8222      198.4000     559.6219     2.4189       26.4933      
11912.0000   65.5667      13.7689      4.2390       101.4000     192.7330     546.5780     2.4151       28.7200      
11912.5000   56.8000      13.8844      4.6866       98.9556      190.5110     483.1330     2.4053       29.1333      
11913.0000   51.1000      13.8956      5.1333       96.6889      188.7110     434.8670     2.4053       28.0800      
11913.5000   52.3333      14.1400      5.7036       94.8000      178.5780     455.6000     2.3951       26.6000      
11914.0000   50.1000      14.2200      5.9297       94.3333      178.0000     481.1560     2.3938       26.4267      
11914.5000   44.2667      14.1867      5.9236       95.4000      188.2670     490.4670     2.4038       26.2667      
11915.0000   41.7000      14.0644      5.6745       94.4000      185.3560     483.5330     2.4051       28.2133      
11915.5000   42.5667      13.8578      5.4469       91.4000      176.2890     463.3560     2.3922       29.8133      
11916.0000   43.5667      13.8600      5.7867       87.4000      163.8220     397.3780     2.3376       30.1733      
11916.5000   40.2667      13.7778      6.9176       84.4889      163.3560     345.0440     2.3327       26.9733      
11917.0000   37.5667      13.6200      9.1768       84.1555      168.5560     283.5330     2.3669       21.4133      
11917.5000   36.3000      13.7000      10.4640      85.9556      172.4000     284.2000     2.4347       19.2800      
11918.0000   37.4667      13.9000      9.4100       87.0889      171.8890     292.4220     2.5031       22.4133      
11918.5000   45.1000      13.9333      6.5164       97.6889      192.5780     360.4670     2.4736       30.2800      
11919.0000   53.1333      13.5489      6.3054       101.4220     209.5560     393.6890     2.3931       31.8400      
11919.5000   56.7667      13.2400      5.4264       104.7110     218.8440     425.7330     2.3344       33.3867      
11920.0000   59.0667      13.3600      4.5644       107.7110     221.9330     408.2000     2.3120       37.1467      
11920.5000   60.0000      13.6022      4.0901       107.8220     226.6890     435.6440     2.3276       39.0133      
11921.0000   57.1000      14.0333      4.0940       105.0220     201.2440     474.0670     2.3567       38.3200      
11921.5000   57.2667      13.9533      4.3268       101.7330     198.0890     534.2000     2.3404       35.8400      
11922.0000   60.9667      13.5667      4.9128       99.1778      189.7110     542.5780     2.3300       32.2800      
11922.5000   63.9333      13.3422      5.4305       95.4222      179.5330     553.9330     2.3373       29.9067      
