~Version Section
VERS.   2.0:  CWLS Log ASCII Standard - Version 2.0
WRAP.    NO:  One data record per depth sample.
~Well Information Section
# 
# All depths are in TVD_SS.
# Log are manufactured using approximations to the nearest value.
# This file should not be used to load logs back into Finder 
# since depths are not MD.
# 
#MNEM.UNIT      VALUE                    DESCRIPTION
#---------      ----------               -----------
STRT.F        5225.0000                  :START DEPTH
STOP.F        13463.5000                 :STOP DEPTH
STEP.F                  .5               :STEP
NULL.          -999.250000               :NULL VALUE
COMP.                                    :Oil Company
WELL.              214/4-1               :Non unique well name
FLD.                                     :Field name
LOC.  -2.233878, 61.964789             :Location
PROV.                                    :Province
SRVC.                                    :Service
DATE.           2001-12-10               :Date unloaded
UWI.              20806940               :Unique well id
~Curve Information Section
#MNEM.UNIT                   API CODE                 Curve Description
#---------                   ----------               -----------------
VERTICAL-DEPTH-SS.F                                   :DEPTH (TVD_SS)
GR.GAPI                                   :Service = CMP1
HCAL.IN                                   :Service = CMP1
HLLD.OHMM                                   :Service = CMP1
DTCO.US/F                                   :Service = CMP2
DTSM.US/F                                   :Service = CMP2
DT1.US/F                                   :Service = CMP2
RHOZ.G/C3                                   :Service = CMP2
NPHI.                                   :Service = CMP2
~A
# ...
9271.0000    70.2667      13.0578      0.8475       147.0000     367.2220     353.8440     2.0480       51.5867      
9271.5000    69.0667      13.0133      0.9342       146.9330     374.6440     348.2000     2.0758       47.0533      
9272.0000    66.6333      12.9244      1.0369       147.2000     380.1330     359.2890     2.0991       46.2000      
9272.5000    65.9333      12.7978      1.0443       144.6890     401.5780     371.8000     2.1116       49.4533      
9273.0000    68.8000      12.7533      1.0262       140.7330     402.7780     359.9780     2.1176       51.3200      
9273.5000    69.7000      12.6356      1.0044       137.7560     395.4000     358.3330     2.1193       49.9200      
9274.0000    65.3000      12.6467      1.0055       136.0440     388.1560     342.1330     2.1320       50.8400      
9274.5000    61.3667      12.7800      1.0858       135.1330     385.5560     330.6890     2.1629       49.2933      
9275.0000    60.0667      12.6733      1.1795       136.0670     379.0000     326.4670     2.1980       48.0667      
9275.5000    66.6000      12.8778      1.1369       139.4220     385.1560     335.2670     2.1856       47.9067      
9276.0000    73.9333      13.0067      1.0518       140.2670     388.1780     339.7560     2.1507       49.5600      
9276.5000    82.4000      12.7489      1.0241       139.5780     390.5330     346.5780     2.1167       47.8800      
9277.0000    80.7333      12.6111      1.0801       139.9330     389.4220     372.7780     2.1278       49.5200      
9277.5000    77.7333      12.5800      1.1093       139.4670     380.7780     381.6000     2.1487       48.6000      
9278.0000    71.8333      12.6600      1.1580       136.4440     363.6000     380.7780     2.1758       49.5600      
9278.5000    68.2000      12.8533      1.2698       135.8670     348.2220     380.0890     2.1744       47.0800      
9279.0000    68.1000      12.7578      1.3214       136.0440     338.3780     379.2440     2.1216       45.7067      
9279.5000    71.1000      13.2333      1.2340       134.4000     328.7330     377.7560     1.9793       51.3600      
9280.0000    72.2333      12.8800      1.0489       136.8440     336.6000     376.6220     1.8842       50.4267      
9280.5000    69.4000      13.2733      0.9369       139.1110     335.0670     374.1110     1.8358       48.6400      
9281.0000    64.7000      12.6089      0.9841       138.8000     324.8890     365.8670     1.9211       42.9600      
9281.5000    58.9667      12.3000      1.0626       139.8670     312.1110     371.5330     2.0413       37.3600      
9282.0000    58.7333      12.3533      1.0464       139.4440     305.6670     361.4000     2.0760       37.9333      
9282.5000    59.8000      12.4822      1.0550       136.4220     308.6220     374.3330     2.0900       41.7600      
9283.0000    62.7667      13.2400      1.0812       129.3780     319.6000     369.9330     2.1182       46.2667      
9283.5000    65.2000      12.7867      1.1380       124.0000     313.7560     351.4670     2.1380       48.5600      
9284.0000    65.6667      12.3667      1.1651       132.0670     312.5330     354.2220     2.1527       45.9867      
9284.5000    65.8667      12.4800      1.2125       134.5780     332.5110     360.1330     2.1389       41.8800      
9285.0000    66.4000      12.9022      1.1916       135.1780     352.9330     358.0440     2.1038       43.2000      
9285.5000    67.7333      13.0333      1.1299       138.5110     345.9780     371.6220     2.0564       47.5067      
9286.0000    69.3667      13.5800      1.0801       142.2670     338.6670     373.6670     2.0176       57.9200      
9286.5000    69.9333      13.2000      1.0561       145.0000     331.2000     375.8670     2.0007       57.1200      
9287.0000    70.2667      12.9644      1.0912       144.3330     327.8440     379.0440     2.0078       53.8400      
9287.5000    65.0667      12.7800      1.1357       136.7560     321.0670     361.5560     2.0360       47.9333      
9288.0000    58.8000      12.8578      1.1783       125.5330     308.1560     335.8670     2.0684       42.4267      
9288.5000    53.6333      12.8800      1.2288       123.5330     299.2670     281.4000     2.0962       36.1200      
9289.0000    52.8000      12.9844      1.2907       120.8670     301.5330     268.0670     2.1073       36.2667      
9289.5000    54.0667      13.0044      1.3391       119.1330     359.3330     277.0670     2.1044       36.3200      
9290.0000    54.5000      13.0244      1.3391       119.6670     355.6220     269.3330     2.0944       36.3333      
9290.5000    53.6000      13.0422      1.3200       123.9330     350.9330     263.4220     2.0838       39.2533      
9291.0000    53.7333      13.1222      1.3106       125.0890     340.2670     261.4890     2.0767       40.2267      
9291.5000    60.5667      13.3156      1.2959       126.5780     332.6670     276.1330     2.0856       44.3333      
9292.0000    67.6667      13.9200      1.2478       130.9560     334.0670     285.5330     2.0933       48.1467      
9292.5000    72.7000      13.5244      1.2064       133.5330     337.9560     302.6440     2.1129       51.4000      
9293.0000    75.9667      13.4844      1.1615       136.2440     364.2670     315.2220     2.1189       48.9067      
9293.5000    77.8333      13.9067      1.1486       139.4000     384.3330     388.2670     2.1189       44.3333      
9294.0000    79.4667      14.0200      1.0476       139.6670     386.6000     375.2000     2.1160       44.6400      
9294.5000    82.8000      14.0600      0.9781       139.9560     380.7110     384.1330     2.1202       46.1200      
9295.0000    86.7000      14.9600      0.9701       140.5560     374.4670     373.9330     2.1400       46.0267      
9295.5000    85.7000      14.6467      1.0305       141.4220     368.5110     366.5560     2.1480       47.8133      
9296.0000    82.8000      13.5400      1.0648       142.1330     361.6000     360.6890     2.1527       50.1733      
9296.5000    81.1000      13.4533      1.1081       140.7330     360.0890     377.2670     2.1509       52.5600      
9297.0000    80.6000      13.4889      1.0801       139.3110     353.0670     376.8670     2.1500       47.0400      
9297.5000    75.4333      14.5000      1.0582       140.9780     369.1330     379.2220     2.1313       43.5333      
9298.0000    69.9000      13.5378      1.1092       144.2670     363.6670     380.8000     2.0991       40.2400      
9298.5000    70.7667      13.3911      1.0561       144.5780     365.3560     375.5330     2.0673       41.8267      
9299.0000    73.0000      14.2733      1.0189       145.0670     367.6220     373.2670     2.0764       44.6000      
9299.5000    76.7667      13.3533      0.9811       144.3560     368.5560     373.4000     2.1171       50.7600      
9300.0000    77.6000      13.3800      1.0724       141.7110     376.9560     372.1780     2.1600       52.2133      
9300.5000    77.1000      13.3667      1.0561       140.9110     378.8890     382.9330     2.1807       52.6667      
9301.0000    77.9000      13.3622      1.0179       142.5330     374.9330     399.1330     2.1764       50.3600      
9301.5000    79.6000      13.3578      1.0055       142.2890     376.7560     397.8890     2.1689       53.3600      
9302.0000    81.7000      13.3911      1.0241       143.9780     379.5780     395.8670     2.1433       52.9200      
9302.5000    77.7667      13.1622      1.0096       145.8670     381.3110     387.2000     2.1049       52.6133      
9303.0000    71.4333      13.1000      1.0065       147.1560     381.8440     362.5330     2.0713       49.8800      
9303.5000    64.9667      13.1911      1.0044       147.2670     377.8670     364.7560     2.0822       51.8800      
9304.0000    60.0000      13.2200      1.0486       146.7330     377.9330     373.2670     2.1300       50.4400      
9304.5000    63.7000      13.1600      1.0539       145.6670     381.4000     374.0220     2.1671       51.3733      
