~Version Section
VERS.   2.0:  CWLS Log ASCII Standard - Version 2.0
WRAP.    NO:  One data record per depth sample.
~Well Information Section
# 
# All depths are in TVD_SS.
# Log are manufactured using approximations to the nearest value.
# This file should not be used to load logs back into Finder 
# since depths are not MD.
# 
#MNEM.UNIT      VALUE                    DESCRIPTION
#---------      ----------               -----------
STRT.F        5225.0000                  :START DEPTH
STOP.F        13463.5000                 :STOP DEPTH
STEP.F                  .5               :STEP
NULL.          -999.250000               :NULL VALUE
COMP.                                    :Oil Company
WELL.              214/4-1               :Non unique well name
FLD.                                     :Field name
LOC.  -2.233878, 61.964789             :Location
PROV.                                    :Province
SRVC.                                    :Service
DATE.           2001-12-10               :Date unloaded
UWI.              20806940               :Unique well id
~Curve Information Section
#MNEM.UNIT                   API CODE                 Curve Description
#---------                   ----------               -----------------
VERTICAL-DEPTH-SS.F                                   :DEPTH (TVD_SS)
GR.GAPI                                   :Service = CMP1
HCAL.IN                                   :Service = CMP1
HLLD.OHMM                                   :Service = CMP1
DTCO.US/F                                   :Service = CMP2
DTSM.US/F                                   :Service = CMP2
DT1.US/F                                   :Service = CMP2
RHOZ.G/C3                                   :Service = CMP2
NPHI.                                   :Service = CMP2
~A
# ...
8557.0000    68.5000      13.2022      0.9612       154.8670     446.2670     471.9560     1.8484       52.6933      
8557.5000    69.8333      14.6200      0.9198       155.8440     443.6440     466.6670     1.8471       49.6400      
8558.0000    73.9667      14.9000      0.9514       156.5560     425.6000     473.8890     1.8691       52.6267      
8558.5000    75.9000      13.9578      1.0347       158.2000     430.1330     478.4670     1.8780       56.1333      
8559.0000    74.1000      13.4644      1.0846       160.4670     441.5110     486.1330     1.8638       59.2000      
8559.5000    70.8000      13.4333      1.0901       163.0890     448.3330     483.5330     1.8444       54.9733      
8560.0000    72.5000      14.3467      1.0411       164.0670     448.5110     480.8670     1.7924       52.7067      
8560.5000    73.5000      15.8222      0.9457       164.2440     456.0890     461.3330     1.7344       52.3200      
8561.0000    73.9000      18.3778      0.9058       161.1110     461.4890     463.6220     1.7067       54.9600      
8561.5000    73.7333      18.7422      0.9682       159.6670     475.5110     456.5560     1.7653       53.2800      
8562.0000    73.4667      15.5156      1.0836       156.7330     478.3780     447.0670     1.8504       57.5733      
8562.5000    72.0667      13.8067      1.1509       155.9330     486.7330     443.3330     1.9140       60.5067      
8563.0000    70.8000      13.6733      1.1104       153.6670     484.2000     440.9330     1.8940       63.5600      
8563.5000    72.0667      14.5467      1.0004       153.2440     472.1560     451.4670     1.8860       57.4933      
8564.0000    72.8667      14.7556      0.9671       150.6670     469.7560     469.9330     1.9004       51.5733      
8564.5000    75.2000      12.8911      1.0693       152.0000     474.0000     467.1330     1.9233       46.9200      
8565.0000    75.9000      12.5467      1.1687       152.6220     472.3780     470.8670     1.8822       48.0000      
8565.5000    77.1000      12.9489      1.0858       154.6670     468.0670     457.2670     1.7680       51.3200      
8566.0000    75.2000      13.9667      0.9781       153.9330     476.0670     460.4000     1.7147       56.4000      
8566.5000    74.0000      13.8222      1.0359       153.8890     470.9560     443.2890     1.7576       60.0400      
8567.0000    70.6000      13.4644      1.2029       153.4000     467.0000     423.2220     1.8684       62.0533      
8567.5000    67.2000      12.4467      1.2907       154.3330     458.0890     420.7110     1.9362       56.2667      
8568.0000    66.3000      12.4956      1.3039       153.0220     428.6000     416.4890     1.9944       52.2000      
8568.5000    67.0000      12.4822      1.3268       151.9330     428.5110     406.6440     2.0067       45.9333      
8569.0000    68.2000      12.1200      1.3268       154.2670     421.4220     396.5330     2.0042       44.2533      
8569.5000    65.0000      12.0289      1.3214       155.7330     416.3560     378.6000     2.0022       42.5600      
8570.0000    62.1333      11.8778      1.3350       155.2440     410.6220     368.1330     1.9971       43.6267      
8570.5000    61.6333      11.7422      1.3682       155.2670     403.7780     384.0670     1.9938       46.4400      
8571.0000    64.5333      11.7333      1.4051       154.8000     399.6440     386.7780     1.9860       46.2667      
8571.5000    67.3000      11.7133      1.4563       152.3330     408.9780     393.8670     1.9651       44.8800      
8572.0000    65.7667      11.7911      1.5297       152.3110     412.8000     395.1330     1.9438       43.1733      
8572.5000    64.0333      11.8467      1.6948       148.6440     408.2000     382.7560     1.9180       42.7600      
8573.0000    61.1333      11.7867      2.0530       146.5780     407.8220     363.2890     1.9218       41.9600      
8573.5000    58.1000      11.8400      2.6385       143.9330     397.6670     341.0890     1.9373       37.7600      
8574.0000    55.9000      11.9000      3.2597       145.3330     381.5330     329.0890     1.9547       35.0000      
8574.5000    52.5333      11.8600      3.5007       143.2000     383.0220     338.7110     1.9789       35.1067      
8575.0000    51.0000      11.9311      3.6061       140.5560     391.7330     339.2440     1.9898       38.1200      
8575.5000    48.4000      11.9800      3.7491       139.8440     389.1330     355.5110     1.9907       36.7600      
8576.0000    52.0667      11.9111      3.8818       139.3560     390.3780     368.4220     1.9907       34.2267      
8576.5000    54.9000      11.9022      3.9459       140.8890     379.9560     358.4440     1.9936       31.1600      
8577.0000    54.2333      11.8267      3.9946       144.1780     374.4220     349.7330     1.9993       31.8267      
8577.5000    49.3667      11.9089      4.0939       146.3330     372.7330     345.6440     2.0060       34.0000      
8578.0000    47.7000      11.9933      4.1361       147.6220     361.8220     345.3330     2.0087       34.6800      
8578.5000    47.7333      11.9644      4.2346       150.0890     352.4890     337.1110     2.0047       34.5333      
8579.0000    49.9000      11.9333      4.2432       153.4440     347.4670     329.0220     1.9973       34.3467      
8579.5000    49.6667      12.0400      4.2432       156.1330     348.2890     321.4670     1.9967       34.1600      
8580.0000    50.6000      12.1733      4.3355       155.2440     348.8890     325.2000     2.0013       36.0133      
8580.5000    49.8000      12.1089      4.4569       157.7560     341.4670     323.2220     2.0067       36.9733      
8581.0000    50.4667      12.0156      4.5537       158.4890     335.6890     321.3330     2.0049       37.8400      
8581.5000    50.5000      11.9822      4.5166       159.0220     328.4670     314.7330     2.0029       36.2933      
8582.0000    50.8667      11.9867      4.5119       159.1560     333.6000     321.6670     1.9998       34.8933      
8582.5000    51.6333      11.9978      4.5119       154.6440     338.0220     323.3780     1.9973       33.2800      
8583.0000    52.3000      12.2400      4.5444       153.0670     339.3780     326.9330     1.9978       34.6267      
8583.5000    53.9333      12.3911      4.3534       151.9110     341.8220     325.4670     2.0022       35.4133      
8584.0000    55.5000      12.6689      3.8905       150.7780     347.3780     336.0440     2.0047       37.0933      
8584.5000    55.2333      12.7289      3.3817       149.8670     350.9330     341.6670     1.9951       38.2400      
8585.0000    55.0000      12.7578      3.0028       149.9330     352.6440     340.7330     1.9858       39.1200      
8585.5000    53.0000      12.7378      2.8820       151.3330     353.6000     340.8670     1.9738       38.4667      
8586.0000    51.5000      12.5178      2.9568       150.8000     352.6000     335.1330     1.9704       36.0400      
8586.5000    51.5333      12.5111      3.2026       151.2890     353.0890     341.4670     1.9647       36.1600      
8587.0000    53.2333      12.5444      3.3396       151.6670     353.4220     340.9330     1.9609       36.0667      
8587.5000    53.6667      12.9133      3.2354       153.1330     352.5110     342.4440     1.9478       35.6800      
8588.0000    53.8000      12.9733      3.0365       151.4670     355.4440     343.5330     1.9347       37.8133      
8588.5000    50.8000      12.8489      3.0271       152.4670     356.4000     340.9330     1.9371       40.1733      
8589.0000    50.8667      12.5000      3.3060       151.8000     355.1560     342.8890     1.9516       40.2000      
8589.5000    49.2000      12.3667      3.6472       152.6890     352.3330     345.2000     1.9684       38.2667      
8590.0000    49.4333      12.4289      3.9139       155.5780     355.8000     343.9780     1.9702       37.6400      
8590.5000    48.5667      12.5756      4.1404       157.4220     353.0670     339.1560     1.9647       38.0400      
