~Version Section
VERS.   2.0:  CWLS Log ASCII Standard - Version 2.0
WRAP.    NO:  One data record per depth sample.
~Well Information Section
# 
# All depths are in TVD_SS.
# Log are manufactured using approximations to the nearest value.
# This file should not be used to load logs back into Finder 
# since depths are not MD.
# 
#MNEM.UNIT      VALUE                    DESCRIPTION
#---------      ----------               -----------
STRT.F        5225.0000                  :START DEPTH
STOP.F        13463.5000                 :STOP DEPTH
STEP.F                  .5               :STEP
NULL.          -999.250000               :NULL VALUE
COMP.                                    :Oil Company
WELL.              214/4-1               :Non unique well name
FLD.                                     :Field name
LOC.  -2.233878, 61.964789             :Location
PROV.                                    :Province
SRVC.                                    :Service
DATE.           2001-12-10               :Date unloaded
UWI.              20806940               :Unique well id
~Curve Information Section
#MNEM.UNIT                   API CODE                 Curve Description
#---------                   ----------               -----------------
VERTICAL-DEPTH-SS.F                                   :DEPTH (TVD_SS)
GR.GAPI                                   :Service = CMP1
HCAL.IN                                   :Service = CMP1
HLLD.OHMM                                   :Service = CMP1
DTCO.US/F                                   :Service = CMP2
DTSM.US/F                                   :Service = CMP2
DT1.US/F                                   :Service = CMP2
RHOZ.G/C3                                   :Service = CMP2
NPHI.                                   :Service = CMP2
~A
# ...
8217.0000    74.3000      12.8800      0.7913       164.3330     497.8000     513.4000     1.7073       60.3600      
8217.5000    72.6333      12.1444      0.8011       164.0670     499.7110     512.8220     1.6971       56.2133      
8218.0000    70.6667      11.9689      0.8458       164.3110     504.9330     511.8670     1.7520       53.3600      
8218.5000    70.3000      12.0489      0.8975       164.2220     502.5780     513.7999     1.8131       48.9067      
8219.0000    70.6000      13.1533      0.8169       164.0890     497.7560     510.2670     1.8347       48.4400      
8219.5000    72.9333      14.1067      0.7938       163.5780     496.2220     510.0220     1.8544       50.7867      
8220.0000    74.9000      12.3178      0.8338       163.2000     490.8220     515.0000     1.8976       51.2667      
8220.5000    74.3000      12.1489      0.8947       163.8670     489.3330     514.1329     1.9411       54.4800      
8221.0000    70.1667      12.1178      0.8874       164.2670     488.0890     507.1110     1.9589       57.2000      
8221.5000    66.9000      12.0844      0.8766       163.2890     487.8670     503.1330     1.9656       58.8133      
8222.0000    65.3000      12.0756      0.8615       162.8670     486.3330     496.6000     1.9589       53.6800      
8222.5000    66.0333      12.0600      0.8580       163.0440     488.0440     504.3110     1.9507       51.4533      
8223.0000    66.8333      12.0644      0.8571       163.5560     489.0440     504.9110     1.9440       50.8000      
8223.5000    69.2667      12.1067      0.8615       164.0890     493.3330     504.1560     1.9464       50.9200      
8224.0000    69.7667      12.0289      0.8624       164.0440     492.5560     501.6440     1.9493       50.4533      
8224.5000    69.8667      12.0000      0.8668       162.5560     491.6220     500.2440     1.9533       50.5600      
8225.0000    68.3000      12.0422      0.8730       160.0440     487.1330     496.5780     1.9502       53.4800      
8225.5000    69.7333      12.0467      0.8686       158.2670     487.7110     495.9780     1.9456       55.4000      
8226.0000    70.7000      12.0600      0.8650       158.8440     483.1560     494.8220     1.9427       55.6533      
8226.5000    70.3667      12.0511      0.8784       160.0000     476.8000     491.4000     1.9427       52.6400      
8227.0000    68.8333      11.9644      0.9030       160.6670     474.2000     489.7330     1.9507       52.1867      
8227.5000    66.0333      11.9000      0.8911       160.4890     473.6220     491.2670     1.9658       55.0667      
8228.0000    65.8667      12.0822      0.8562       159.9780     472.4670     489.5330     1.9849       55.3333      
8228.5000    66.9667      13.3733      0.8210       159.6670     475.6670     488.6670     1.9927       53.2400      
8229.0000    68.2333      12.1267      0.8295       159.8000     475.7560     497.6000     1.9942       49.1600      
8229.5000    70.0667      12.0378      0.8501       158.2220     480.8890     502.4670     1.9853       51.8400      
8230.0000    72.7000      12.2333      0.8518       163.2440     483.2890     504.0440     1.9689       54.3200      
8230.5000    75.2667      12.0400      0.8440       164.8000     487.6220     504.1780     1.9578       52.3200      
8231.0000    76.6000      12.0933      0.8484       165.3560     492.2000     492.2000     1.9520       53.1600      
8231.5000    74.2000      12.0467      0.8650       161.5330     491.4440     501.8000     1.9607       52.6667      
8232.0000    72.0000      12.1400      0.8580       157.4670     494.3780     500.8890     1.9589       58.9200      
8232.5000    72.2667      12.1044      0.8501       158.2220     497.6000     504.7780     1.9556       56.4000      
8233.0000    72.9333      12.0978      0.8449       160.9330     496.2670     506.8670     1.9478       58.7600      
8233.5000    75.3000      12.1778      0.8337       159.6670     496.7330     503.6670     1.9387       55.7467      
8234.0000    75.2667      12.2600      0.8510       159.6670     495.6000     504.5330     1.9376       55.4800      
8234.5000    73.9667      12.1267      0.8501       163.1330     492.5780     504.5110     1.9482       55.0533      
8235.0000    71.7333      12.0644      0.8415       161.9560     490.7560     506.6000     1.9631       52.3600      
8235.5000    70.7000      12.0600      0.8642       160.1560     488.0000     503.7110     1.9851       49.6400      
8236.0000    72.2000      12.0889      0.8975       157.4890     480.9560     501.6000     1.9911       48.6400      
8236.5000    74.3000      12.1533      0.9189       155.3780     477.5330     496.6440     1.9913       49.1867      
8237.0000    73.8333      12.1222      0.9179       155.0670     479.0000     494.0000     1.9913       50.3600      
8237.5000    73.9667      12.1200      0.9095       157.5330     479.5560     494.3560     1.9909       48.8000      
8238.0000    74.2667      12.1089      0.8865       162.7110     482.2440     492.4000     1.9867       50.4000      
8238.5000    77.5000      12.0667      0.8802       164.7560     483.9560     490.0670     1.9758       49.7867      
8239.0000    74.8000      12.0978      0.9012       166.0000     489.5330     489.8000     1.9656       52.5333      
8239.5000    73.0000      12.1044      0.9086       165.4670     489.6670     491.6440     1.9593       53.5867      
8240.0000    67.5000      12.2000      0.9049       165.0890     498.7780     493.3780     1.9538       56.6533      
8240.5000    66.0000      12.1044      0.8713       165.1110     500.8000     493.9110     1.9471       58.2800      
8241.0000    65.7000      12.0133      0.8624       165.3560     504.0000     497.5330     1.9451       57.2267      
8241.5000    65.8000      12.0222      0.8748       164.0670     502.2670     496.9110     1.9573       55.8400      
8242.0000    65.1000      11.9533      0.8712       163.7560     498.7560     501.2000     1.9778       55.7200      
8242.5000    66.1667      12.0067      0.8704       163.4000     494.5330     500.6440     1.9853       57.0000      
8243.0000    67.6333      12.0378      0.8730       162.6890     494.8670     502.3330     1.9882       58.4000      
8243.5000    68.8667      12.0511      0.8730       161.9780     494.2670     498.6000     1.9731       56.5200      
8244.0000    70.3000      11.9400      0.8739       161.9330     495.5780     493.9330     1.9602       53.0800      
8244.5000    69.2000      11.9933      0.8346       161.8670     497.2670     494.4890     1.9333       56.0133      
8245.0000    69.0000      12.1022      0.8286       162.0000     502.0670     496.0670     1.9442       59.5200      
8245.5000    69.6333      12.5067      0.8397       161.7560     495.1110     494.0220     1.9538       55.4400      
8246.0000    72.1000      12.0311      0.8722       161.5560     488.5560     492.2670     1.9756       51.6000      
8246.5000    69.5667      11.9622      0.8957       159.9110     486.6670     492.8000     1.9993       52.3467      
8247.0000    65.2667      11.9600      0.8957       158.5330     482.5780     493.2890     2.0264       53.1867      
8247.5000    61.9000      11.9844      0.8713       158.6440     481.0220     495.3330     2.0467       55.1200      
8248.0000    64.2333      11.9867      0.8372       156.6000     475.8890     492.2670     2.0191       54.8933      
8248.5000    66.5667      12.0089      0.8135       157.4220     475.8440     493.1330     1.9853       58.2400      
8249.0000    67.4000      12.0667      0.8261       158.1560     479.4440     495.3560     1.9591       54.4133      
8249.5000    66.8667      12.0489      0.8475       159.7560     483.3560     498.7110     1.9436       52.0133      
8250.0000    72.2667      12.0356      0.8545       161.3330     484.9330     499.2890     1.9438       48.5600      
8250.5000    74.8000      12.0267      0.8518       163.8000     481.4670     497.3780     1.9436       48.8133      
